stop_lat,stop_lon,stop_id,parent_station,stop_name,location_type
12.1506227,-86.2839456,node/7848132699,,Cuerpo de Bomberos,0
12.1525420667,-86.2461224,relation/6473418,,Súper de los Militares,1
12.1455021,-86.2534489667,relation/6473417,,Semáforos de Ciudad Jardín,1
12.118321,-86.29376595,relation/6473415,,Super Boutique,1
12.13108195,-86.23314105,relation/6473413,,Sucursal Rubenia - DISSUR,1
12.1509840002,-86.2235601997,relation/6473411,,Sucursal Norte - DISSUR,1
12.1481172,-86.2937739,node/7555590743,,Ederli,0
12.1618616,-86.2936746,node/7555590747,,El Consultorio,0
12.1521317,-86.297303,node/7555590745,,Monseñor Lezcano,0
12.167578,-86.3587026,node/3230468220,relation/6473592,Vuelta de la Uno,0
12.1627215,-86.2935968,node/7555590749,,Acahualinca,0
12.1462149,-86.277966,node/3230468223,,Cabrera,0
12.1390167,-86.3000836,node/3230468224,relation/6472806,INVUR,0
12.1663542,-86.3546967,node/3230468226,relation/6472835,Iglesia San Francisco,0
12.1460009,-86.2894121,node/3230468227,relation/6472915,Las Palmas,0
12.0954191,-86.247942,node/3951162773,,Las Terrazas,0
12.0904083,-86.24512,node/3951162772,relation/6472913,Las Calderas,0
12.0843697,-86.2394618,node/3951162771,relation/6472885,La Estancia,0
12.1507816501,-86.2722385499,relation/6473099,,Parque Luis Alfonso Velásquez,1
12.0741904,-86.1985247,node/3951162777,relation/6473584,Vistas de Esquipulas,0
12.0972767,-86.2482483,node/3951162776,relation/6473566,Viejo Santo Domingo,0
12.0820229,-86.2302648,node/3951162775,relation/6473539,UNICA Sur,0
12.0940225,-86.246473,node/3951162774,relation/6473035,Notre Dame,0
12.1231619,-86.2969503,relation/6473093,,Parque Independencia,1
12.1115330502,-86.2293425001,relation/6473090,,Parque Germán Pomares Ordóñez,1
12.1343354,-86.2994715,relation/6473091,,Parque Héroes y Mártires,1
12.1517848,-86.300006,relation/6473096,,Parque José de San Martín,1
12.1296253,-86.2530366,node/3277763392,relation/6472493,Colonia Máximo Jerez,0
12.06964875,-86.20583455,relation/6473070,,El Chato,1
12.0691544,-86.2034296,relation/6473073,,Los Rocha,1
12.132378,-86.24464505,relation/6473075,,Parque 10 de Junio,1
12.14852605,-86.27601655,relation/6473076,,INSS,1
12.1600641,-86.29382745,relation/6473078,,Parque Acahualinca,1
12.14546305,-86.23197485,relation/6473079,,Parque Amistad,1
12.1568746,-86.19886905,relation/6472279,,Terminal Barrio Camilo Chamorro,1
12.1525234,-86.2428547,node/7727710179,,SINSA Carretera Norte,0
12.1506531,-86.27024,node/7727710177,,Entrada Olof Palme,0
12.1289233668,-86.2199419665,relation/6472277,,Barrio Américas 1,1
12.1333928,-86.253992,node/7727710173,,Barrio El Riguero Sur,0
12.1091169,-86.2166071,relation/6472273,,Barber Shop,1
12.10934445,-86.2249434,relation/6472477,,Colegio Salomón Ibarra,1
12.1514985,-86.238773,node/3699001102,,La Vuelta,0
12.1066673003,-86.2971808502,relation/6472474,,Colegio Rodolfo Rodríguez Alvarado,1
12.1143114,-86.2936012,relation/6472472,,Colegio Roberto Vargas Bretes,1
12.1081289,-86.264878,node/2865607775,relation/6472449,Colegio La Anunciación,0
12.1124555,-86.2647511,node/2865607772,relation/6472422,Claro Villa Fontana,0
12.1255305,-86.20366525,relation/6472478,,Colegio San Ignacio de Loyola,1
12.0747262,-86.2200199,node/2712755431,,Entrada a Esquipulas,0
12.1424631,-86.2421147,node/3696143873,,Colegio Reverendo Boanerges Aragón,0
12.1578077,-86.3137174,node/3705029108,,San Miguel Arcángel,0
12.119937,-86.2319062,node/3705029107,relation/6473443,Tanque,0
12.1524421,-86.2460419,node/3705029106,relation/6473418,Súper de los Militares,0
12.1554934,-86.3147253,node/3705029105,,Rótulo Joyería Garzón,0
12.1521471,-86.2427114,node/3705029104,,Calbri Internacional,0
12.157764,-86.2956546,node/2530293541,relation/6472537,Cuadro Gadala María,0
12.1514066,-86.2369377,node/3705029102,relation/6472555,Distribuidora La Universal,0
12.1482085,-86.2372477,node/3705029101,relation/6472499,Colonial Norte,0
12.1578692,-86.2948197,node/2530293542,relation/6472537,Cuadro Gadala María,0
12.14903215,-86.28157895,relation/6472578,,El Boer,1
12.0815444506,-86.2366203498,relation/6472619,,El Poste Blanco,1
12.0819193516,-86.2336307014,relation/6472618,,El Parque,1
12.14551855,-86.2633575,relation/6472616,,El Panal,1
12.1349697,-86.19452835,relation/6473002,,Mercado Mayoreo,1
12.15561625,-86.2879715,relation/6472611,,El Molito,1
12.1092121,-86.2237215,node/2496956006,relation/6473440,Tanque Rojo,0
12.1340124,-86.2383082,node/2496956004,relation/6472788,Hospital Japonés,0
12.1024961,-86.2187256,node/2496956003,relation/6472581,Parque Los Chilamates,0
12.0891666,-86.1954995,node/2496956002,relation/6472813,Iglesia Católica,0
12.0933277,-86.2024674,node/2496956001,,Residencial Bruselas,0
12.1393804,-86.210793,node/7716318628,,Puente San Jacinto,0
12.1419983,-86.2945947,node/3230468222,,PUMA - El Guanacaste,0
12.1178448,-86.2382227,node/2496956009,relation/6473048,Palí La Fuente,0
12.1310027,-86.3102866,node/3227474867,relation/6472241,Asososca,0
12.1258307,-86.2964158,node/3227474866,relation/6472636,El Zumen Norte,0
12.1254915,-86.2966774,node/3227474865,relation/6472636,El Zumen Norte,0
12.1445027,-86.3041184,node/3227474863,relation/6472633,El Seminario,0
12.1315196,-86.2171498,node/3227474862,relation/6472583,El Contil,0
12.1243832,-86.2768171,node/3227474861,relation/6472569,ENEL Central,0
12.11424995,-86.2170571,relation/6473009,,Milagro de Dios,1
12.1436857,-86.2648812,node/2311964348,relation/6473013,Ministerio de Defensa,0
12.1258691,-86.289637,node/3227474869,,Excel Automotriz,0
12.1284792,-86.2223622,node/3227474868,relation/4263957,Entrada Primero de Mayo,0
12.1423587,-86.2959168,node/3286898977,,Autolavado Ticuer,0
12.097006,-86.2481526,node/3463489349,relation/6473566,Viejo Santo Domingo,0
12.1129267,-86.1911756,node/3286898978,relation/6472285,Barrio Israel Gaelano,0
12.1396747,-86.2379861,node/3286898979,relation/6472384,Cementerio Oriental,0
12.1408843,-86.2394954,node/7641858890,,La American University,0
12.07631,-86.2132525,node/3951162770,relation/6472883,La Ermita de Esquipulas,0
12.1530489001,-86.2517247498,relation/9670467,,Antigua Aduana,1
12.1506467,-86.1867614,node/3696259369,,Farmacia Erika,0
12.1486448,-86.3105607,node/3216618792,relation/6472926,Hospital Lenín Fonseca,0
12.1655033,-86.3643831,node/3230468772,relation/6472366,Casa del Zinc,0
12.1661942,-86.3617151,node/3230468774,relation/6472839,Iglesia San José,0
12.1235846,-86.2936798,relation/6472293,,Barrio el Pilar,1
12.1241589,-86.2768494,node/3227474660,relation/6472569,ENEL Central,0
12.1452707501,-86.3003649999,relation/6472291,,Reparto Miraflores,1
12.1230486501,-86.1912655,relation/6472296,,Bayer,1
12.1379186,-86.2911109,node/2866717687,relation/6473311,La Racachaca,0
12.13067925,-86.2904479999,relation/6472299,,Colegio Benjamín Zeledón,1
12.1124485,-86.28278235,relation/6472298,,Benito Juárez,1
12.1150773,-86.2537564,node/2462431802,relation/6472625,El Quetzal,0
12.115654,-86.2392015,node/5013020530,,Parque Adolfo Reyes,0
12.0696117,-86.2158242,node/5177114041,relation/6472672,KM 12 Carretera Masaya / La Base,0
12.1657783,-86.3556567,node/3714406696,relation/6473050,Palí Ciudad Sandino,0
12.1575929,-86.3603565,node/3714406697,relation/6473366,Santa Eduviges,0
12.15013185,-86.31979435,relation/9671024,,Unimar,1
12.1576741,-86.3603392,node/3714406698,relation/6473366,Santa Eduviges,0
12.15005825,-86.31955665,relation/9671023,,Terminal de la Ruta 114,1
12.1133024,-86.3156148,node/3247277509,relation/6472677,Entrada a San Patricio,0
12.1131921,-86.3156189,node/3247277508,relation/6472677,Entrada a San Patricio,0
12.1229287,-86.1948878,node/3271335668,relation/6472981,Manuel Fernández,0
12.1061562,-86.3095939,node/3247277501,relation/6472346,Campo de Béisbol,0
12.1060498,-86.3094365,node/3247277500,relation/6472346,Campo de Béisbol,0
12.1130302,-86.3115679,node/3247277503,relation/6472401,Centro Kairos,0
12.1125363,-86.3112545,node/3247277502,relation/6472401,Centro Kairos,0
12.1295496,-86.2976377,node/3247277505,relation/6472455,Colegio Madre del Divino Pastor,0
12.1435307,-86.2509417,node/3247277504,,Cerrajería Tenderí,0
12.1409392,-86.2914192,node/3247277507,,Escuela Normal María Mazzarello,0
12.1296873,-86.297125,node/3247277506,relation/6472455,Colegio Madre del Divino Pastor,0
12.1371643,-86.2350764,node/7651417283,,La Basílica,0
12.108226,-86.3110582,node/7214740343,relation/6472284,Barrio Germán Pomares,0
12.1441998,-86.2141199,node/7228355974,relation/6473597,Zona Franca Dasol,0
12.1828064,-86.359001,node/7644921538,,Salida Valle Sandino,0
12.1356184,-86.2090342,node/7651417284,,9 de Junio,0
12.1799302,-86.3550819,node/7644921534,,La Zona,0
12.1809411,-86.3563438,node/7644921536,,Zaratoga,0
12.145137,-86.2515321,node/2490583640,,Profamilia,0
12.1052598,-86.2233822,node/2490583643,relation/6473354,Salomón Moreno,0
12.1330932,-86.2810839,node/7228355979,,Banco LAFISE Bancentro Plaza España,0
12.1269069,-86.2036062,node/2865556800,relation/6473181,Maxi Palí,0
12.0899103,-86.309568,node/3735486673,relation/6473614,Camilo Ortega 1,0
12.1345222,-86.2918804,node/3735486672,,Puente,0
12.1484328,-86.2962683,node/3735486670,relation/6473103,Parque Mennen,0
12.0899683,-86.3094766,node/3735486674,relation/6473614,Camilo Ortega 1,0
12.1541202,-86.2984103,node/2468437824,,Semáforos La Ceibita,0
12.1422333,-86.24199,node/2476043393,,INDENICSA,0
12.1541678,-86.2640651,node/3237278829,,Rubén Darío,0
12.155966,-86.238429,node/3237278826,relation/6472447,Colegio José de la Cruz Mena,0
12.1506843,-86.3009579,node/3237278824,,Cine León,0
12.1498155,-86.2923632,node/3237278822,,Las Vegas,0
12.1534804,-86.2544573,node/3237278823,relation/6473304,Quinta Nina,0
12.1542333,-86.2656516,node/3237278820,relation/6472859,Instituto Loyola,0
12.139216,-86.2378737,node/3306673901,relation/6472384,Cementerio Oriental,0
12.123277,-86.2937124,node/3306673900,relation/6472293,Barrio el Pilar,0
12.1143052,-86.2936313,node/3306673903,relation/6472472,Escuela Melania Morales,0
12.1162713,-86.2940421,node/3306673902,relation/6472398,Entrada Barrio El Pilar,0
12.1455772,-86.2622499,node/2509891206,relation/6472526,Policía Distrito I Norte,0
12.1173348,-86.1656836,node/2509891207,,Antigua Estación,0
12.1091169,-86.291053,node/3306673907,relation/6473178,Pozo Enacal,0
12.108915,-86.287216,node/3306673906,relation/6473402,Sombrero de Sandino,0
12.1183219,-86.2938145,node/3306673909,relation/6473415,Super Boutique,0
12.1206296,-86.2944631,node/3306673908,relation/6473295,Pulpería Wendy,0
12.0888395,-86.3094151,node/3735486705,,Terminal Camilo Ortega,0
12.1007976,-86.298539,node/3735486704,relation/6473404,Sorbetería Haydee,0
12.1479557,-86.2883207,node/3735486703,relation/6473355,Salud Integral,0
12.1482279,-86.2864599,node/3735486702,,Ruta Maya,0
12.1319793,-86.293043,node/3735486700,,Gasolinera Altagracia,0
12.1521896,-86.2738517,node/3217862650,,Asamblea,0
12.0993451,-86.2605761,node/4404042709,relation/6589729,Club Terraza Sur,0
12.1053079,-86.2501565,node/4404042701,relation/6589725,Galerías Santo Domingo Norte,0
12.1023543,-86.2609414,node/4404042700,relation/6589724,Entrada a San Isidro,0
12.1026926,-86.2587098,node/4404042703,,Entrada a Residencial Mirasol,0
12.1055814,-86.2503118,node/4404042702,relation/6589725,Galerías Santo Domingo Norte,0
12.08797,-86.2619113,node/4404042705,relation/6589727,Pallavicini,0
12.1028578,-86.2573039,node/4404042704,,ASSA,0
12.0879614,-86.2620183,node/4404042706,relation/6589727,Pallavicini,0
12.13234565,-86.31383905,relation/6472919,,Las Piedrecitas,1
12.0903752,-86.2450633,relation/6472913,,Las Calderas,1
12.14595185,-86.2893788,relation/6472915,,Las Palmas,1
12.1421435,-86.2941771,node/3230617599,,Autostar,0
12.149557,-86.2176573,node/6191189631,,SenCom,0
12.1501034,-86.2174245,node/3303390746,,Ladrillería Americana,0
12.1523704,-86.246069,node/3303390747,,Madinisa,0
12.1527279,-86.250078,node/3303390744,,Agronisa,0
12.1534252,-86.2581586,node/3303390745,relation/6473140,Planta Eléctrica,0
12.136131,-86.2895137,relation/6472828,,Templo Mormón Altagracia,1
12.1244635502,-86.2182169001,relation/6472829,,Iglesia Mormona,1
12.1509291,-86.2304952,node/3303390740,relation/6472809,Iglesia Adventista Carretera Norte,0
12.1515113,-86.1892305,node/3303390741,relation/6473046,Palí Las Mercedes,0
12.1406302,-86.2511772,relation/6472826,,Iglesia Morava Managua,1
12.17575975,-86.358651,relation/6472827,,Iglesia Morava Ciudad Sandino,1
12.151937,-86.2605036,node/3303390748,,Terminal 170,0
12.1207459251,-86.2215764,relation/6472823,,Iglesia Madre del Divino Amor,1
12.1142428,-86.2968209,node/7605153408,,Iglesia Bautista Nazareth,0
12.1283201,-86.2914479,node/7605153406,,Farmacia El Recreo,0
12.1019287,-86.294205,node/7605153401,,Grúas Hocri,0
12.145323,-86.2277932,node/7605153403,,Ferretería Shalom,0
12.1492612,-86.2971919,node/6262869568,,Estatua Monseñor Lezcano,0
12.1385024,-86.2219929,node/6685636463,,Terraqueos Bar,0
12.145751,-86.2535505,node/7867259739,,Semáforos de Ciudad Jardín,0
12.1539652,-86.22683315,relation/6473243,,Barrio Selim Shible,1
12.13148775,-86.29166545,relation/6473241,,Pulpería Gema,1
12.1402107,-86.2569083,node/7727710175,,Politécnico de Comercio,0
12.14175655,-86.24567375,relation/6472271,,Bar Neptuno,1
12.1422147,-86.250941,node/7867259732,,Clínica Santamaría,0
12.1164844,-86.2378357,node/7727710171,,Duya Mágica,0
12.1599889,-86.195424,node/4332740715,relation/6473615,Terminal Berta Díaz,0
12.1599865,-86.1954445,node/4332740714,relation/6473615,Terminal Berta Díaz,0
12.147631,-86.1901873,node/2316388654,,Entrada a Las Mercedes / Subasta,0
12.1234184,-86.2189518,node/4332740713,relation/6473574,Villa Flor Norte,0
12.1234158,-86.2188559,node/4332740712,relation/6473574,Villa Flor Norte,0
12.1472544,-86.2836966,node/3230468215,,Estadio Cranshaw,0
12.1385766,-86.30189035,relation/6473400,,Sitel,1
12.1670009,-86.3533633,node/3230468217,relation/6472727,Farmacia Nefi,0
12.10884225,-86.2871981,relation/6473402,,Sombrero de Sandino,1
12.1008,-86.29855965,relation/6473404,,Sorbetería Haydee,1
12.118353,-86.23932555,relation/6473407,,Sport Gym La Fuente,1
12.1677296,-86.3518785,node/3230468212,relation/6472599,El Gallo Más Gallo,0
12.1389148,-86.2324411,node/3705789584,relation/6472609,Bello Horizonte Sur,0
12.1384584,-86.2292108,node/3705789585,relation/6473032,Multicentro Sur,0
12.1395615,-86.3320464,node/3230468218,relation/6472871,KM 9,0
12.1402993,-86.2332238,node/3705789583,relation/6472319,Boulevard Bello Horizonte,0
12.09786,-86.2486051,node/3951162760,relation/6472536,Cruz Verde,0
12.101875,-86.2500139,node/3951162761,relation/6472575,Taller El Chele,0
12.0880889,-86.2425319,node/3951162762,,Ecami,0
12.1048456,-86.2509152,node/3951162763,relation/6472597,El Establo,0
12.0815286,-86.234575,node/3951162764,relation/6472618,El Parque,0
12.0816211,-86.2371994,node/3951162765,relation/6472619,Tercera Etapa Las Sierritas,0
12.0739873,-86.196868,node/3951162766,relation/6472635,Colegio Pablo Antonio Cuadra,0
12.0750346,-86.2096788,node/3951162767,relation/6472697,FUTEC,0
12.1262982002,-86.2414834999,relation/6473085,,Parque Don Bosco (Mercado Huembes),1
12.0851629,-86.2403662,node/3951162769,relation/6472850,Las Sierritas,0
12.13145585,-86.2435104,relation/6473082,,Parque Colombia,1
12.1404869,-86.2567845,node/7727710183,,Iglesia Bautista Eben Ezer,0
12.1526062,-86.2640091,node/7727710181,,Vuelta Casa de las Mangueras,0
12.1457074,-86.1726379,node/2463308684,,Hotel Las Mercedes,0
12.1124528,-86.2827376,node/3681496680,relation/6472298,Benito Juárez,0
12.12156915,-86.2159664,relation/6473061,,Panadería San José,1
12.0695982,-86.2048903,relation/6473067,,Cenicera,1
12.16760595,-86.3519877001,relation/6472599,,El Gallo Más Gallo,1
12.06964165,-86.2071425,relation/6473065,,Alborada,1
12.06997305,-86.21166945,relation/6473069,,El Avispero,1
12.10488425,-86.250829,relation/6472597,,El Establo,1
12.1289656501,-86.34573895,relation/6472591,,El Cuadro,1
12.13624605,-86.25071995,relation/6472592,,Semáforo El Dorado,1
12.1359544,-86.24992795,relation/6472593,,El Dorado,1
12.151902,-86.3487088,node/3870181556,relation/6472909,La primera casa,0
12.1375172,-86.2378776,node/3708560719,relation/6473422,TAMENICSA,0
12.1485874,-86.2035718,node/3708560718,relation/6472650,Entrada Barrio Hugo Chávez,0
12.1168541,-86.2732265,node/3708560717,relation/6473313,Radio Universidad,0
12.1571572,-86.1882654,node/2955328166,relation/6472607,El Molino,0
12.1080845,-86.2649674,relation/6472449,,Colegio La Anunciación,1
12.1286856,-86.2184971,node/3227474919,,Almacenes Tropigás,0
12.1175431,-86.2517319,node/3227474918,relation/6472785,Hospital Central,0
12.1175126,-86.2519282,node/3227474917,relation/6472785,Hospital Central,0
12.1341841501,-86.3456101,relation/6472443,,Colegio Cuachillo,1
12.17331395,-86.36664295,relation/6472440,,Colegio Cristiano el Edén,1
12.1453496,-86.3005823,node/3227474914,relation/6472291,Reparto Miraflores,0
12.1352938,-86.1996061,node/3227474913,relation/6473379,Semáforos Mayoreo,0
12.1559646,-86.2382874,relation/6472447,,Colegio José de la Cruz Mena,1
12.1387751,-86.3000385,node/3227474911,relation/6472806,INVUR,0
12.1314764,-86.2572331,node/3227474910,,Rotonda Santo Domingo,0
12.1402583,-86.2405541,node/3264411582,,Taller Mejía,0
12.1372469,-86.2390325,node/3264411580,relation/6473287,Barrio Ducualí,0
12.1490233,-86.2548191,node/3264411581,,Importaciones Raesva,0
12.1360063,-86.2498942,node/3217862864,relation/6472593,El Dorado,0
12.157522,-86.3043751,node/3217862867,,Colonia Linda Vista,0
12.1368155,-86.2535973,node/3217862866,,Ferretería Universal,0
12.1362433,-86.2506083,node/3217862861,relation/6472592,Semáforo El Dorado,0
12.1118122,-86.2086026,node/3705029109,relation/6473483,Terminal 195,0
12.1077853,-86.2235523,node/3217862862,relation/6472703,Farmacia Balgar,0
12.0768707,-86.1942542,node/3320044551,relation/6473346,Rótulo Clínica Nuevos Horizontes,0
12.1481062,-86.2743883,node/3217862869,relation/6472237,Arboretum,0
12.1455331,-86.2737374,node/3217862868,relation/6473155,Plaza Inter,0
12.13478855,-86.21190105,relation/6472622,,El Puente 9 de Junio,1
12.1548356,-86.352547,node/3714407333,relation/6473580,Villa Nueva,0
12.1417088,-86.2457121,node/2496956017,relation/6472271,Bar Neptuno,0
12.1425241,-86.296261,node/7716318634,,Iglesia Cristiana del Verbo,0
12.155038,-86.3524536,node/3714407334,relation/6473580,Villa Nueva,0
12.1281763,-86.2342302,node/7716318637,,La Vuelta,0
12.1215718,-86.2434657,node/2496956018,,Tecnológico Central,0
12.1474785,-86.2821575,node/2496956019,,Semáforo CST,0
12.1262321,-86.2389738,node/3227474874,,Ferretería Jenny,0
12.1297527,-86.2288875,node/3227474875,,Pista La Sabana,0
12.1316522,-86.2174057,node/3227474877,relation/6472583,El Contil,0
12.1349617,-86.1996434,node/3227474870,relation/6473379,Semáforos Mayoreo,0
12.1437674,-86.3048745,node/3227474872,relation/6472633,El Seminario,0
12.1438295,-86.3050195,node/3227474873,relation/6472633,El Seminario,0
12.1089782,-86.209416,node/3705029103,relation/6472666,Entrada Villa Milagro,0
12.1286691,-86.2196044,node/3227474878,relation/6472277,Barrio Américas 1,0
12.1585356,-86.2931079,node/2530293543,relation/6473261,Pulpería La Providencia,0
12.0972527,-86.2972737,node/3707305453,relation/6473493,Villa Roma,0
12.1487209,-86.2258016,node/3707305454,relation/6473495,Barrio Santa Rosa,0
12.138345,-86.2493999,node/3696161100,,Colegio Ignacio Loyola,0
12.1476085,-86.1877452,node/3696259370,relation/6472770,Entrada Unidad de Proposito,0
12.1554014,-86.2198485,node/6182622806,,Super Express,0
12.1533332,-86.1854209,node/3696259372,relation/6473026,Modesto Armijo,0
12.1493611,-86.2239105,node/3696259373,relation/6473116,Paso a Desnivel Portezuelo,0
12.1552632,-86.1841815,node/3696259374,relation/6473451,Terminal 105,0
12.1395009,-86.2995133,node/3696205604,,El Bodegón,0
12.1500395,-86.2206043,node/2323340692,,ENACAL,0
12.1422472,-86.2378,node/3696259377,relation/6472811,Iglesia Carmen de Santidad,0
12.1468089,-86.1621201,node/3301308684,relation/6473533,UNA / Agraria,0
12.1395362,-86.2455709,node/2316271724,relation/6472847,Iglesia de Dios,0
12.1114835,-86.2296874,node/3301308680,relation/6473090,Parque Germán Pomares Ordóñez,0
12.1142469,-86.2170119,node/3301308681,relation/6473009,Milagro de Dios,0
12.113204,-86.2203143,node/3301308682,relation/6473272,Pulpería Mejía,0
12.1056684,-86.2306925,node/3301308683,relation/6473478,Terminal 169,0
12.1485953,-86.2005339,node/2316382111,relation/6472902,La Rocargo,0
12.1206564,-86.2621387,node/2462431872,,Ultranic,0
12.1263891,-86.2391134,node/2462431876,,Ferretería Jenny,0
12.0747126,-86.2177889,node/7538589658,relation/11781303,Palí,0
12.1170921,-86.2840636,node/3333023396,relation/6472781,Hospedaje San Francisco,0
12.1233079,-86.3079483,node/7389854086,relation/10384780,Contraloría General de la República,0
12.1252992,-86.2971674,node/2523942646,,El Zumen Oeste,0
12.1231279,-86.296961,node/2523942649,relation/6473093,Parque Independencia,0
12.1192639,-86.2834535,node/3333023394,relation/6472715,Farmacia El Valle,0
12.1478204,-86.2892938,node/3705551220,relation/6473355,Salud Integral,0
12.1306125,-86.2750825,node/3705551221,relation/6473586,Vivero,0
12.1270764,-86.3014034,node/3247277516,relation/6472997,Mercado Israel Lewites Oeste,0
12.1279692,-86.3013498,node/3247277517,relation/6472997,Mercado Israel Lewites Oeste,0
12.0997653,-86.3078412,node/3247277514,,La Cooperativa,0
12.1330928,-86.2929351,node/3247277515,,Libro Café Rosita,0
12.1414943,-86.2519422,node/3247277512,,Gimnasio Nicarao,0
12.0997346,-86.3077361,node/3247277513,,La Cooperativa,0
12.1316825,-86.2949278,node/3247277510,,Farmacia Asunción,0
12.1352933,-86.292961,node/3247277511,,Ferretería Avilés,0
12.1569464,-86.2821942,node/3217862887,relation/6473363,Santa Ana,0
12.1350502,-86.2441751,node/3217862885,relation/6473563,Video Club,0
12.1231988,-86.2092621,node/2475807992,relation/6472977,Madre de Dios Este,0
12.1574344,-86.2969299,node/3217862883,relation/6473225,Pulpería Doña Tere,0
12.1453369,-86.2738749,node/3217862882,relation/6473155,Plaza Inter,0
12.1569561,-86.2776975,node/3217862881,,Parque San Sebastián,0
12.1378977,-86.2925272,node/3247277519,,Panadería Levi,0
12.0988613,-86.2133405,node/2490583652,relation/6472380,Cementerio Las Jagüitas,0
12.1278491,-86.2953277,node/2490583656,relation/6472217,Alcaldía de Managua,0
12.1358921,-86.2173262,node/7716318626,,Arvizú Norte,0
12.1367672,-86.2916601,node/3735486668,,Galilea,0
12.1480426,-86.2920616,node/3735486669,relation/6472712,Farmacia Dayser,0
12.0929265,-86.3097094,node/3735486665,,Colegio Cristiano Restauración,0
12.1569099,-86.2323275,node/7639952040,,Barbería Charlie's,0
12.1276504,-86.2119791,node/3876973814,,Farmacia Sophya,0
12.1297164,-86.2017682,node/2865556799,relation/6472656,Entrada Norte a Laureles Norte,0
12.1242793,-86.2342146,node/3876973816,relation/6473349,Donde fue SERFOSA,0
12.09928925,-86.26072725,relation/6589729,,Club Terraza Sur,1
12.1261232,-86.2048215,node/2865556798,relation/6473044,Palí - Las Américas,0
12.1518852,-86.2589101,node/3237278853,,El Ceibón,0
12.0822094,-86.2604358,relation/6589723,,Cementerio San Isidro,1
12.1575167,-86.2867816,node/3237278851,relation/6473054,Palí Santa Ana,0
12.0879657,-86.2619648,relation/6589727,,Pallavicini,1
12.1023438,-86.26103795,relation/6589724,,Entrada a San Isidro,1
12.10544465,-86.25023415,relation/6589725,,Galerías Santo Domingo Norte,1
12.1421658,-86.2187158,node/6532390967,relation/9664472,Auto Lavado La Máquina,0
12.1421634,-86.2188018,node/6532390969,relation/9664472,Auto Lavado La Máquina,0
12.1472624,-86.2092876,node/7651448086,,Barrio Waspán,0
12.0992334,-86.2608784,node/4404042710,relation/6589729,Club Terraza Sur,0
12.1519138,-86.3486278,relation/6472909,,La primera casa,1
12.1488439,-86.2257852,node/3707320877,relation/6473495,Barrio Santa Rosa,0
12.0973701,-86.2973192,node/3707320876,relation/6473493,Villa Roma,0
12.1350357,-86.2393629,node/3707320875,relation/6473267,Pulpería Machado,0
12.11915245,-86.2057822,relation/6472903,,La Sabana,1
12.1483756514,-86.1996466493,relation/6472902,,La Rocargo,1
12.09653095,-86.3029489,relation/6472900,,La Parrilla,1
12.1562604,-86.3042514,node/3216611245,,Policía Distrito II,0
12.1130342,-86.1922217,node/4082299675,relation/6472949,Los Mangos,0
12.1129332,-86.1922326,node/4082299674,relation/6472949,Los Mangos,0
12.159754,-86.3501273,node/3870181519,relation/6472192,ALKE Ciudad Sandino,0
12.1089776,-86.2983854,node/2315495181,,Cooperativa de Panificadores,0
12.1525774,-86.248319,node/3303390730,,Ajax Delgado Sur,0
12.1511411,-86.2326542,node/3303390737,,Dirección General de Aduanas,0
12.1485708,-86.2031474,node/3303390736,relation/6472650,Entrada Barrio Hugo Chávez,0
12.1661477,-86.3616909,relation/6472839,,Iglesia San José,1
12.12490805,-86.2236701,relation/6472837,,Iglesia San José Obrero,1
12.0909139,-86.306952,node/463217648,,La Vuelta,0
12.1492954,-86.2082342,node/3303390738,,Bomberos Barrio Waspán,0
12.10921075,-86.22364075,relation/6473440,,Tanque Rojo,1
12.1199051,-86.2319422,relation/6473443,,Tanque,1
12.1019706,-86.2940553,node/7605153412,,Grúas Hocri,0
12.0987815,-86.2910172,node/7605153413,,Cementerio Loma Linda,0
12.1269195,-86.1984141,node/3306673912,relation/6473490,Terminal Los Laureles Norte,0
12.1078986,-86.2870227,node/3306673911,relation/6473498,Terminal Memorial Sandino,0
12.1401777,-86.2678993,node/3255740085,relation/6473017,Mirador Tiscapa,0
12.1467716,-86.213892,node/7228355978,relation/6473427,Taller Conrado,0
12.086543,-86.1938692,relation/6473279,,Pulpería Nohelia,1
12.1132397,-86.2203138,relation/6473272,,Pulpería Mejía,1
12.147203,-86.2412875,node/3694718718,,San Luis Sur,0
12.1464026,-86.2640017,node/4332740708,relation/6473507,Terminal Vanegas,0
12.1465189,-86.2641305,node/4332740709,relation/6473507,Terminal Vanegas,0
12.1126971,-86.2637662,node/4332740702,relation/6472422,Claro Villa Fontana,0
12.1206853,-86.2213762,node/4332740703,relation/6472823,Iglesia Madre del Divino Amor,0
12.15492,-86.1949721,node/4332740700,relation/6472334,Café Soluble,0
12.1549403,-86.1947824,node/4332740701,relation/6472334,Café Soluble,0
12.1208148,-86.2353839,node/4332740706,relation/6472888,La Fuente,0
12.1069902,-86.1884019,node/4332740707,,Terminal Lomas de Guadalupe,0
12.1207817,-86.2214118,node/4332740704,relation/6472823,Iglesia Madre del Divino Amor,0
12.120683,-86.2355005,node/4332740705,relation/6472888,La Fuente,0
12.1654324,-86.3626847,node/3230468202,relation/6472893,La Palmera,0
12.09889425,-86.22709045,relation/6473475,,Terminal 165,1
12.1382351,-86.3045296,node/3230468200,relation/6472222,Aldea SOS,0
12.11698745,-86.19162355,relation/6473477,,Terminal 167,1
12.0753636,-86.229419,node/3951162759,relation/6472360,Casa España,0
12.1324622,-86.3138824,node/3230468207,relation/6472919,Las Piedrecitas,0
12.1664081,-86.3474123,node/3230468204,,Bomberos Ciudad Sandino,0
12.10081895,-86.2221835,relation/6473473,,Terminal 164,1
12.1280239,-86.2971943,node/2490583762,relation/6472217,Alcaldía de Managua,0
12.1589253,-86.3717996,node/3230468209,relation/6472463,Colegio Nueva Vida,0
12.1056418,-86.230698,relation/6473478,,Terminal 169,1
12.147168,-86.2823108,node/7553970893,,Semáforo CST,0
12.1258857,-86.2967679,node/7553970891,,INATEC,0
12.1290775,-86.2340031,node/7553970897,,Colonia Nicarao,0
12.1491424,-86.2954814,node/3240370461,,American Boutique,0
12.1498866,-86.2743748,node/7553970895,,Avenida Bolívar,0
12.1143523,-86.2321461,node/7553970898,,Pulpería Latina,0
12.1574575,-86.28678255,relation/6473054,,Palí Santa Ana,1
12.0968156,-86.2074966,node/2489005384,relation/6472349,Campo de béisbol Las Jagüitas,0
12.16579525,-86.3558075,relation/6473050,,Palí CIudad Sandino,1
12.126379,-86.2749418501,relation/6473051,,Barrio Argentina,1
12.1535747,-86.3492392,relation/6472587,,El Cruce de Reyes,1
12.0790152,-86.2567915,relation/6473502,,Terminal San Isidro,1
12.1315859,-86.21727775,relation/6472583,,El Contil,1
12.1023317,-86.2185805999,relation/6472581,,Parque Los Chilamates,1
12.1167555,-86.2966204999,relation/6472580,,El Ceibo,1
12.0983219,-86.2416236501,relation/6473184,,KM 8 Carretera Masaya / Primera entrada a Las Colinas,1
12.1209132501,-86.22511395,relation/6473185,,Primero de Mayo,1
12.1273278501,-86.2034053003,relation/6473181,,Predio Mayoreo,1
12.1296184501,-86.2973813501,relation/6472455,,Colegio Madre del Divino Pastor,1
12.12832715,-86.25146965,relation/6472454,,Colegio Luis Alfonso Velásquez,1
12.1372355,-86.2166797,node/3227474906,relation/6473314,Rafaela Herrera,0
12.1376818,-86.2166559,node/3227474907,relation/6473314,Rafaela Herrera,0
12.1593462,-86.1879581,relation/6472451,,Colegio Las Américas,1
12.1308274,-86.2614086,node/3227474901,relation/6473149,Plaza El Sol,0
12.1175347,-86.2500154,node/3227474902,,Centro Comercial Managua,0
12.128876,-86.2219243,node/3227474903,relation/4263957,Plaza La Sabana,0
12.1757566,-86.3587016,node/3874022006,relation/6472827,Iglesia Morava Ciudad Sandino,0
12.1757629,-86.3586004,node/3874022007,relation/6472827,Iglesia Morava Ciudad Sandino,0
12.152205,-86.2831289,node/3217862873,relation/6472973,MTI,0
12.1530176,-86.282687,node/3217862871,,Antiguo Estadio Nacional Norte,0
12.1516988,-86.3091274,node/3217862877,relation/6472982,Manuel Olivares,0
12.1227914,-86.2430506,node/3217862874,relation/6472993,Mercado Huembes Sureste,0
12.1388383001,-86.2465158999,relation/6473387,,Semáforo El Paraisito,1
12.1262267,-86.241175,node/3217862879,relation/6473085,Parque Don Bosco (Mercado Huembes),0
12.1496143,-86.2883143,node/3705789678,,Taller Automotriz,0
12.07397925,-86.196801925,relation/6472635,,Colegio Pablo Antonio Cuadra,1
12.1256611,-86.2965466001,relation/6472636,,El Zumen Norte,1
12.13276585,-86.25255435,relation/6472631,,El Riguero,1
12.1441911501,-86.26692175,relation/6472630,,El Redentor,1
12.1441948503,-86.3045466756,relation/6472633,,El Seminario,1
12.1447540501,-86.3488659,relation/6472639,,El parque de Villa Soberana,1
12.1516904,-86.1862831,node/4333697510,relation/6472375,Cayetana Alberta,0
12.1026105,-86.2737374,node/5516535724,relation/6473264,Pulpería La Rojita,0
12.1024748,-86.2737619,node/5516535721,relation/6473264,Pulpería La Rojita,0
12.1470419,-86.2580418,node/5516535723,,Tienda Power 099,0
12.105589,-86.2723872,node/5516535722,relation/6472654,Entrada Miguel Bonilla,0
12.1758655,-86.3624354,node/5512883819,,Claro,0
12.19287,-86.3649024,node/3876874085,relation/6472940,Los Brasiles,0
12.1917607,-86.3686425,node/3876874080,relation/6472938,Los Brasiles Entrada,0
12.192769,-86.3647544,node/3876874083,relation/6472940,Los Brasiles,0
12.1918638,-86.3686364,node/3876874082,relation/6472938,Los Brasiles Entrada,0
12.1210556,-86.2312724,node/2462431914,relation/6472817,Iglesia Inmaculada Concepción,0
12.1519173,-86.257586,node/3327879207,,Vidriera,0
12.1530847,-86.2545077,node/3327879206,relation/6473304,Llantera Centroamericana,0
12.1296126,-86.2954226,node/2490583600,,Colegio Madre del Divino Pastor,0
12.1362928,-86.2583862,node/2948372902,,Clínica María Auxiliadora,0
12.1064261,-86.2978446,node/2315496198,,San Judas,0
12.1018909,-86.2917504,node/3707305081,relation/6472345,Camino a San Isidro de Bolas,0
12.1514905,-86.2240748,node/6537696918,,Universidad Central de Nicaragua,0
12.1424451,-86.2577282,node/3217862658,,El Cruce,0
12.1532056,-86.2740495,node/3217862652,relation/6472355,Cancillería,0
12.1308702,-86.2747835,node/4339476408,relation/6473586,Vivero,0
12.1572706,-86.2819083,node/3217862656,relation/6473363,Santa Ana,0
12.1524316,-86.2877626,node/3217862654,,Delicias del Volga,0
12.1580649,-86.2992548,node/3217862655,relation/6473439,Talleres Pellas,0
12.123483,-86.2092457,node/2475807984,relation/6472977,Madre de Dios Este,0
12.0905149,-86.1978495,node/4062504450,relation/6473325,Residencial Mayales,0
12.0905804,-86.1977974,node/4062504451,relation/6473325,Residencial Mayales,0
12.1350299,-86.2392922,node/3707305086,relation/6473267,Pulpería Machado,0
12.1607137,-86.3659328,node/7852133280,,Cancha de Nueva Vida,0
12.1325847,-86.2198611,node/3178298661,relation/6472325,C.D.I. Sol de Libertad,0
12.1569176,-86.2291481,node/3237278848,relation/6472985,Colegio Público Santa Clara,0
12.1576316,-86.2892268,node/3237278842,relation/6472840,Iglesia Santa Ana Norte,0
12.1502664,-86.2974894,node/3237278844,,Impresiones Universales,0
12.1454084,-86.2241472,node/3237278845,,La Unión Larreynaga,0
12.1451565,-86.2184214,node/6532390971,,Farmacia Jazmín,0
12.1237052,-86.3060698,node/7548562505,,Hospital Fernando Vélez Páiz,0
12.1422411,-86.2376928,node/3286646379,relation/6472811,Óptica Cristal,0
12.1417201,-86.2540433,node/7651448092,,Ciudad Jardín,0
12.1487868,-86.2025283,node/2316371264,relation/6472650,Entrada Barrio Hugo Chávez,0
12.1616145,-86.1882733,node/3725622873,relation/6472354,Cancha Benito Escobar,0
12.1290578,-86.2201517,node/2267780696,relation/6472277,Barrio Américas 1,0
12.1593533,-86.187888,node/3725622876,relation/6472451,Colegio Las Américas,0
12.1623868,-86.1891298,node/3725622877,relation/6473459,Villa José Benito Escobar,0
12.161627,-86.1882191,node/3725622874,relation/6472354,Cancha Benito Escobar,0
12.1593391,-86.1880282,node/3725622875,relation/6472451,Colegio Las Américas,0
12.15185,-86.2490896,relation/6473551,,Universidad de las Américas,1
12.1504636,-86.3455779,node/3876761710,relation/6473229,Pulpería Ebenezer,0
12.1090411,-86.2285695,node/7639952028,,Salomón Moreno,0
12.1509209,-86.2260083,node/2955353883,,Nabisco,0
12.19181225,-86.36863945,relation/6472938,,Los Brasiles Entrada,1
12.15264585,-86.258703,relation/6472935,,Llantera Vargas,1
12.15153385,-86.304557,relation/6472933,,Linda Vista Sur,1
12.117949,-86.2387155,node/7639952026,,Palí La Fuente,0
12.1119483,-86.231651,node/2496956013,,Pulpería Jonathan,0
12.17824855,-86.35825505,relation/6473612,,Zona 11 Norte,1
12.1519701,-86.2587437,node/7340800014,relation/6472579,El Calvario,0
12.0722229,-86.1975694,node/2489005431,relation/6473486,Terminal 262,0
12.15076735,-86.24940265,relation/6472803,,Uno Hospital Solidaridad,1
12.1388959,-86.30006105,relation/6472806,,INVUR,1
12.1034096,-86.23308115,relation/6472808,,Iglesia Adventista,1
12.1511591503,-86.2308756497,relation/6472809,,Iglesia Adventista Carretera Norte,1
12.140054,-86.2140808,node/7716318630,,Semáforos San Jacinto,0
12.1359503,-86.242016,node/3696093639,relation/6473372,Sastrería Estilo y La Moda,0
12.1327495,-86.2421555,node/3696093638,relation/6472923,Leche Agria 10 de Junio,0
12.1496428,-86.2119945,node/3303390735,,ESCASAN,0
12.137001,-86.2703328,node/7009904079,,Tiscapa Sur,0
12.1359322,-86.2460253,node/3216611251,relation/6472707,Farmacia Cáceres,0
12.1489036,-86.1577357,node/3299544140,relation/6473598,Zona Franca Las Mercedes,0
12.1121657,-86.1969483,node/3645200578,,Ferretería La Bendición,0
12.1117045,-86.234195,node/3216611257,relation/6472775,Germán Pomares,0
12.153062,-86.1991373,node/3738814414,relation/6474755,Colegio Camilo Zapata,0
12.1116664,-86.234288,node/3216611255,relation/6472775,Germán Pomares,0
12.114744,-86.2362448,node/3216611254,relation/6472252,Avenida Isidro Centeno López,0
12.13998625,-86.3476357,relation/6473467,,Terminal 125,1
12.1475934,-86.1938861,node/7686368634,,La Subasta,0
12.13688505,-86.2091717,relation/6473465,,Terminal 119,1
12.1351126,-86.1982629,node/7686368636,,Polanco,0
12.1098632,-86.2338869,node/7686368631,,Maderería,0
12.16884415,-86.36512595,relation/6473461,,Terminal 115,1
12.1468025,-86.1828545,node/7686368632,,El Anexo,0
12.1098672,-86.2338372,node/7686368638,,Maderería,0
12.1473625,-86.2642173,relation/6473469,,Terminal de Retorno 133,1
12.16338305,-86.36595895,relation/6473468,,Terminal 133,1
12.1585303,-86.293063,relation/6473261,,Pulpería La Providencia,1
12.10254265,-86.27374965,relation/6473264,,Pulpería La Rojita,1
12.1398265,-86.240294,node/7553970886,,El Recreo,0
12.1454413,-86.2645881,node/7553970888,,Pulpería Chu Chu,0
12.1358833,-86.24601465,relation/6472707,,Farmacia Cáceres,1
12.1440222,-86.2139542,node/3694650308,relation/6473597,Zona Franca Dasol,0
12.148156,-86.1987594,node/2316379926,relation/6472902,La Rocargo,0
12.1395677,-86.208643,node/3694650306,relation/6472987,Maxi Palí Larreynaga,0
12.1404663,-86.2132235,node/3694650307,,Pulpería Doña Fran,0
12.11786565,-86.23828925,relation/6473048,,Palí La Fuente,1
12.1552551,-86.18882155,relation/6473519,,Transagro,1
12.1481989,-86.2274584,node/3707305085,relation/6473122,Peluquería Leysi,0
12.13904965,-86.2566675,relation/6473040,,PMS Construcciones,1
12.15666835,-86.3705578,relation/6473511,,Terminal 113,1
12.1616332,-86.34696765,relation/6473517,,Toño Negro,1
12.1260483,-86.20486515,relation/6473044,,Palí - Las Américas,1
12.15357595,-86.30091565,relation/6473515,,Tortillería Alicia,1
12.1515081,-86.18917105,relation/6473046,,Palí Las Mercedes,1
12.1513892,-86.2312561,node/3303390739,relation/6472809,Iglesia Adventista Carretera Norte,0
12.1276871,-86.2149274,node/3271335661,relation/6473390,Semáforos Sandak,0
12.13218655,-86.340208,relation/6473197,,Puente Mostatepe,1
12.15512685,-86.2941572,relation/6473196,,Puente León,1
12.1550965,-86.21694485,relation/6473193,,Puente La Toña,1
12.15599995,-86.2222517,relation/6473191,,Puente La Primavera,1
12.12004265,-86.3142482,relation/6473190,,Puente Frawley,1
12.1401682,-86.246848,node/3227474931,,Puente El Paraisito,0
12.1230413,-86.3082028,node/3227474930,relation/10384780,Contraloría General de la República,0
12.0888252,-86.3094923,node/7624214282,,Terminal Camilo Ortega,0
12.13962235,-86.21099135,relation/6473199,,Puente San Jacinto,1
12.1286929,-86.2221958,node/7716318636,,Entrada Primero de Mayo,0
12.1412239,-86.3477268,relation/6472339,,Calle 12,1
12.1165549002,-86.2582438997,relation/6472484,,Colegio Teresiano,1
12.1371147,-86.2659591,relation/6472483,,Colegio Simón Bolívar,1
12.13427535,-86.23412205,relation/6472481,,Colegio San Rafael,1
12.15493015,-86.19487725,relation/6472334,,Café Soluble,1
12.1236608,-86.2136844,relation/6472489,,Colegio Villa Venezuela Sur,1
12.1590107,-86.3389349,node/7659931815,,Colgate - Palmolive,0
12.1649115,-86.3484997,node/7659931817,,Plaza Padre Miguel,0
12.1692684,-86.3432745,node/7644921530,,Entrada Ciudad Sandino,0
12.1385025,-86.2538242,node/3216618797,relation/6472953,Los Paisas,0
12.152572,-86.2621449,node/3277763402,relation/6473291,Pulpería San José,0
12.1327649,-86.2525094,node/3277763401,relation/6472631,El Riguero,0
12.1140289,-86.2388717,node/3277763400,relation/6473239,Sorbetería Córdoba,0
12.1350928,-86.2822976,node/2462431929,relation/6473152,Plaza España Norte,0
12.1592072,-86.2780385,node/3188734624,relation/6473361,San Sebastián,0
12.1438887,-86.2594812,node/7141980142,,Comercial Vega,0
12.1392637,-86.2091571,node/3699059199,relation/6472987,Maxi Palí Larreynaga,0
12.1363837,-86.2015581,node/3699059198,,Gerald Repuestos,0
12.1242358,-86.21554845,relation/6472487,,Colegio Villa Venezuela Oeste,1
12.1653053,-86.3626807,node/3873926353,relation/6472893,La Palmera,0
12.1628018,-86.3555096,node/3873926354,relation/6472865,Juzgados Ciudad Sandino,0
12.1653283,-86.3577935,node/3873926355,relation/6472991,Mercadito (Ciudad Sandino),0
12.1666246,-86.3466762,node/3873926356,relation/6473359,San Benito,0
12.13278485,-86.24205055,relation/6472923,,Leche Agria 10 de Junio,1
12.1456223,-86.2496603,node/3286646368,relation/6473548,Uniformes Nicky,0
12.1487965,-86.3106453,relation/6472926,,Hospital Lenín Fonseca,1
12.1341975,-86.233962,node/3286646364,relation/6472481,Clínica Don Bosco,0
12.1360047,-86.23830395,relation/6472928,,Barrio Meneses,1
12.1311543,-86.233114,node/3286646366,relation/6473413,Sucursal Rubenia - DISSUR,0
12.150103,-86.297397,node/3286646367,,Farmacia Bravo,0
12.1433199,-86.2968666,node/3286646361,,Accesa,0
12.1483002,-86.2532429,node/3286646362,,Barrio Los Ángeles,0
12.1545552,-86.2689065,node/3286646363,,Cine Margot,0
12.1364118,-86.2011647,node/3694443321,,Autos Flores,0
12.1047087,-86.228711,node/3707031582,relation/6473499,Terminal Reparto Schick,0
12.1153965,-86.2026603,node/7568695291,,Villa Libertad,0
12.1458438,-86.1761416,node/7545633019,,Aduana,0
12.1280715,-86.2153897,node/7568695295,,Farmacia Anita,0
12.1170871,-86.1882348,node/3285056533,,Agencia Esso,0
12.1210258,-86.23130235,relation/6472817,,Iglesia Inmaculada Concepción,1
12.14224415,-86.2377464,relation/6472811,,Iglesia Carmen de Santidad,1
12.089222,-86.19547295,relation/6472813,,Iglesia Católica,1
12.1577487,-86.1499058,node/7545633013,,Terminal Primero de Mayo,0
12.1460791,-86.3048997,node/3237278981,relation/6473549,Universidad Paulo Freire,0
12.1694402,-86.35887265,relation/6472818,,Iglesia Las Puertas del Cielo,1
12.0992271,-86.2984719,node/3250355393,relation/6473307,Quinta Santa Martha,0
12.0979593,-86.2994105,node/3250355392,relation/6473293,Pulpería Telma,0
12.1014935,-86.298345,node/3250355391,,Pulpería Manuel,0
12.1129505,-86.2969105,node/3250355390,,Pulpería Esperanza,0
12.1264817,-86.2917794,node/3250355395,,Sporgym,0
12.1342662,-86.2890049,node/3250355394,,Repuestos Jarquín,0
12.1512955,-86.2238582,node/3237278982,relation/6473411,Sucursal Norte - DISSUR,0
12.11305955,-86.20352965,relation/6473463,,Terminal 116,1
12.1260649,-86.2882322,node/3227474886,,Julio Martínez,0
12.11490275,-86.28297035,relation/6473329,,Rosa de Saron,1
12.162427,-86.18912535,relation/6473459,,Villa José Benito Escobar,1
12.15522945,-86.1841284,relation/6473451,,Terminal 105,1
12.09054765,-86.19782345,relation/6473325,,Residencial Mayales,1
12.1241096,-86.1987941,node/3306673904,relation/6472664,Entrada Sur a Laureles Norte,0
12.14287905,-86.2098153,relation/6473217,,Pulpería Amanda,1
12.1241013,-86.1986899,node/3306788917,relation/6472664,Entrada Sur a Laureles Norte,0
12.1143176,-86.2935711,node/3306788916,relation/6472472,Escuela Melania Morales,0
12.1162506,-86.2939159,node/3306788915,relation/6472398,Entrada Barrio El Pilar,0
12.1375548,-86.2987853,node/3306788914,,Cemex 150 mts al Norte,0
12.1238922,-86.2936472,node/3306788913,relation/6472293,Barrio el Pilar,0
12.1124053,-86.2910494,node/3306788912,relation/6472283,Barrio Franciso de Asís,0
12.152277,-86.2549823,node/6707697945,,Casa de Empeño Prisa,0
12.1451919,-86.3001477,node/3306788919,relation/6472291,Reparto Miraflores,0
12.1492573,-86.2821316,node/3306788918,,Antiguo Estadio Nacional Sur,0
12.09405675,-86.24644795,relation/6473035,,Notre Dame,1
12.1177084,-86.1960253,relation/6473037,,Omar Téllez Sánchez,1
12.15425935,-86.3341285,relation/6473522,,Parada sin nombre,1
12.1384101,-86.2292258,relation/6473032,,Multicentro Sur,1
12.1255199,-86.2037873,node/3286898992,relation/6472478,Colegio San Ignacio de Loyola,0
12.1388206,-86.2324018,node/3705552207,relation/6472609,Bello Horizonte Sur,0
12.1512421,-86.2973488,node/3705552206,relation/6472257,Avenida de las Milicias,0
12.1169939,-86.1916932,node/3286898993,relation/6473477,Terminal 167,0
12.1483557,-86.2962752,node/3705552209,relation/6473103,Parque Mennen,0
12.1400876,-86.2333988,node/3705552208,relation/6472319,Boulevard Bello Horizonte,0
12.1391468,-86.2067987,node/3227474924,,Villa Fraternidad,0
12.140289,-86.2995763,node/3227474922,relation/6473530,UCEM,0
12.1266496,-86.311842,node/3227474923,,Donde era el Hospital Vélez Páiz,0
12.1257625,-86.2726892,node/3227474920,relation/6473527,UCA,0
12.1268021,-86.2715981,node/3227474921,relation/6473527,UCA,0
12.1482146,-86.23729775,relation/6472499,,Colonial Norte,1
12.12973005,-86.2278117,relation/6472498,,Colonia Rubenia,1
12.1400022,-86.21019295,relation/6472329,,Cafetín Coco,1
12.15975795,-86.28747745,relation/6473143,,Plantel Central,1
12.14554615,-86.2893616501,relation/6472323,,Budget,1
12.1309278,-86.26146925,relation/6473149,,Plaza El Sol,1
12.1296274,-86.2530834,relation/6472493,,Colonia Máximo Jerez,1
12.1571374,-86.2346039,node/3237278968,relation/6473255,Pulpería La Chontaleña,0
12.1325857,-86.21979145,relation/6472325,,C.D.I. Sol de Libertad,1
12.0989292,-86.2271179,node/1933089347,relation/6473475,Terminal 165,0
12.1540454,-86.226704,node/3237278966,relation/6473243,Barrio Selim Shible,0
12.153018,-86.2494429,node/3237278961,,Provinco,0
12.1418043,-86.2456354,node/2490583745,relation/6472271,Bar Neptuno,0
12.1716702,-86.358231,node/3876874068,relation/6473610,[Parada sin nombre],0
12.08095205,-86.25980635,relation/6593167,,Mini Agencia Ponce,1
12.08550305,-86.26194785,relation/6593166,,Iglesia San Isidro,1
12.1567767,-86.2298635,node/3240370483,relation/6472985,Materiales de Construcción Santa Clara,0
12.149564,-86.3369112,node/7848132701,,Entrada a Bello Amanecer,0
12.1262718,-86.2989939,node/2490583755,,INATEC,0
12.1453802,-86.2536353,node/2490583752,relation/6473417,Semáforos de Ciudad Jardín,0
12.1554444,-86.2829864,node/7852133269,,UNO Santa Ana,0
12.1538282,-86.3325244,node/7852133265,,Ultramar,0
12.1557049,-86.2899182,node/7852133266,,Asados El Novillo,0
12.165573,-86.3570861,node/3230617597,relation/6472219,Alcaldía de Ciudad Sandino,0
12.1359412,-86.2418929,node/3694452887,relation/6473372,Sastrería Estilo y La Moda,0
12.1402755,-86.2413915,node/3694452886,,Pulpería Jireh,0
12.1407434,-86.2829349,node/3694452885,relation/6472352,Canal 2,0
12.1231746,-86.3080755501,relation/10384780,,Contraloría General de la República,1
12.1310282,-86.2615299,node/2519106868,relation/6473149,Plaza El Sol,0
12.1153396,-86.2328068,node/2496955989,relation/6473589,Vuelta II,0
12.0833596,-86.1919972,node/2496955988,relation/6472844,Iglesia Solo Cristo Salva,0
12.1484902,-86.2760521,node/2496955986,relation/6473076,INSS,0
12.1486651,-86.2783126,node/2496955984,relation/6472507,Comedor Getsemani,0
12.1409707,-86.2418915,node/2496955983,,Plaza El Edén,0
12.1366117,-86.3458065,node/3870181965,relation/6473587,Vuela Rey de Reyes,0
12.1362455,-86.2894713,node/2496955981,relation/6472828,Templo Mormón Altagracia,0
12.0967278,-86.207579,node/2496955980,relation/6472349,Campo de béisbol Las Jagüitas,0
12.1046022,-86.2476662,node/2463262630,relation/6472762,Galerías Santo Domingo Este,0
12.15264945,-86.2679955,relation/6473126,,Petronic,1
12.14173135,-86.19556755,relation/6472955,,Los Rieles,1
12.0696187,-86.20972395,relation/6472957,,Los Robles,1
12.1670835,-86.3595734,relation/6472950,,Los Masayas,1
12.1385409,-86.25381335,relation/6472953,,Los Paisas,1
12.138494,-86.3018705,node/7047301822,relation/6473400,Sitel,0
12.1567711,-86.2292923001,relation/10411285,,Colegio Público Santa Clara,1
12.1127205,-86.25718465,relation/6472959,,Lotería,1
12.10178005,-86.29168915,relation/6472345,,Camino a San Isidro de Bolas,1
12.1566246,-86.2294365,node/7170225608,relation/10411285,Colegio Público Santa Clara,0
12.106103,-86.3095152,relation/6472346,,Campo de Béisbol,1
12.1606624,-86.34841,node/3870182056,relation/6472187,15 de Julio,0
12.1607838,-86.3484723,node/3870182057,relation/6472187,15 de Julio,0
12.1459034,-86.2347273,node/2500129843,relation/6473331,Rotonda Bello Horizonte Oeste,0
12.114643,-86.2539701,node/3452608679,relation/6472625,El Quetzal,0
12.1325867,-86.2197218,node/3452608678,relation/6472325,C.D.I. Sol de Libertad,0
12.1215558,-86.2159214,node/3301308679,relation/6473061,Panadería San José,0
12.1393193,-86.293648,node/3452608677,relation/6472211,Agroalfa,0
12.1162329,-86.2167771,node/3301308678,relation/6473059,Panadería Maritza Lucía,0
12.1492696,-86.3488219,node/3870181958,relation/6472941,Los Cocos,0
12.1493612,-86.2130197,node/2323511396,,AGCO,0
12.1127932,-86.2034015,node/7568695287,,Leche Agria La Vaquerita,0
12.1136528,-86.2033264,node/7568695288,,Ferretería Klary,0
12.1123503,-86.2917368,node/3306673899,relation/6472283,Barrio Franciso de Asís,0
12.1029296,-86.2984645,node/3735486698,relation/6473258,Pulpería La Esquinita,0
12.1329838,-86.1995644,node/2865556803,relation/6473379,Semáforos Mayoreo,0
12.1417045,-86.195512,node/3301308676,relation/6472955,Los Rieles,0
12.1222376,-86.2959302,node/3735486697,,Avenida Roberto Vargas,0
12.1449302,-86.167356,node/3301308672,,INAC,0
12.0964248,-86.3028434,node/3250355380,relation/6472900,La Parrilla,0
12.1299884,-86.2904115,node/3250355381,relation/6472299,Colegio Benjamín Zeledón,0
12.1165925,-86.2965145,node/3250355382,relation/6472580,El Ceibo,0
12.1367854,-86.2874578,node/3250355383,,El Recreo,0
12.0986958,-86.3022526,node/3250355384,relation/6472714,Farmacia El Maestro,0
12.1093694,-86.2972945,node/3250355385,,Farmacia López Vargas,0
12.1401828,-86.2677088,node/3250355386,relation/6473017,Mirador Tiscapa,0
12.1061009,-86.2976686,node/3250355387,,Palí San Judas,0
12.1348479,-86.2822887,node/3250355388,relation/6473152,Plaza España Norte,0
12.1650754,-86.2941615,node/7867259731,,Terminal Huellas de Acahualinca,0
12.1424572,-86.2511905,node/7867259737,,Clínica Santamaría,0
12.125748,-86.2455431,node/7867259734,,Policía de Tránsito,0
12.1379424,-86.2390233,node/7867259735,,Mercado El Periférico,0
12.1390323,-86.2089538,node/7447600828,relation/6472665,Entrada Villa Fraternidad,0
12.1148809,-86.1971226,node/3285056539,,Pulpería La Bodeguita,0
12.152309,-86.2898576,node/3240370260,relation/6472214,Agrosa,0
12.1272342,-86.2093242,node/2500129934,relation/6472445,Colegio Inmaculada Concepción,0
12.1531006,-86.1854508,node/2316394910,relation/6473026,Modesto Armijo,0
12.1267478,-86.2064952,node/2865556792,,El Madroño,0
12.1417388,-86.220892,node/3248184367,relation/6472603,El Manguito,0
12.1472146,-86.2439925,node/3248184366,relation/6472243,Auto Servicios Pacheco,0
12.1417471,-86.2186669,node/3248184369,,Colonia Rubén Darío,0
12.1505434,-86.2461514,node/3248184368,relation/6472328,CECNA,0
12.1164776,-86.2829329,relation/6473449,,Hialeah,1
12.1446405,-86.2338052001,relation/6473333,,Rotonda Bello Horizonte Sur,1
12.0766092,-86.2221009,node/7529503759,,Plaza Once,0
12.1459872,-86.23467375,relation/6473331,,Rotonda Bello Horizonte Oeste,1
12.09010285,-86.2342010001,relation/6473446,,KM 9 Carretera Masaya / Tercera entrada a Santo Domingo,1
12.127005,-86.2821509999,relation/6473336,,Rotonda El Periodista,1
12.1342269,-86.2579184999,relation/6473335,,Rotonda Cristo Rey,1
12.152514,-86.1890208,node/3303390743,,Trigo Dorado,0
12.1034053,-86.2967608,node/3707325061,relation/6473233,Pulpería El Bulky,0
12.11064245,-86.2378754,relation/6473205,,Puesto Médico Buitrago,1
12.1665805,-86.36072175,relation/6473202,,Puente de la Zona#5,1
12.0960957,-86.3045783,node/3255740094,relation/6472890,Colegio La Hispanidad,0
12.1343914,-86.2891343,node/3255740093,,Tornos Fénix,0
12.1263945,-86.2919611,node/3255740092,,Semáforos Julio Martínez,0
12.1362178,-86.2861597,node/3255740091,,SINSA Bolonia,0
12.0981029,-86.299426,node/3255740090,relation/6473293,Pulpería Telma,0
12.1033657,-86.2968735,node/3707325060,relation/6473233,Pulpería El Bulky,0
12.1512267,-86.2972038,node/3449592859,relation/6472257,Avenida de las Milicias,0
12.1379559,-86.2901703,node/3449592858,relation/6473311,La Racachaca,0
12.1082097,-86.2506466997,relation/6473028,,Movistar,1
12.1532169,-86.18543585,relation/6473026,,Modesto Armijo,1
12.1393532,-86.2935141,node/3449592857,relation/6472211,Agroalfa,0
12.14029395,-86.29963895,relation/6473530,,UCEM,1
12.14694235,-86.1621267,relation/6473533,,UNA / Agraria,1
12.1260784,-86.2750375,node/3705552211,relation/6473051,ENEL Este,0
12.10685195,-86.2722107003,relation/6473534,,UNAN Oeste,1
12.1036558,-86.26946075,relation/6473537,,UNAN Sur,1
12.08205545,-86.2302529,relation/6473539,,UNICA Sur,1
12.1534099,-86.22422705,relation/6472551,,Disagro,1
12.1574192,-86.35242675,relation/6472554,,Dispensario Villa Soberana,1
12.15141145,-86.2369787,relation/6472555,,Distribuidora La Universal,1
12.1514674,-86.2359807,node/2436184776,,Best Brand Pacas,0
12.1047207,-86.2256711,node/3216611238,relation/6472648,Enrique de Ossó,0
12.1183805,-86.2392914,node/3216642427,relation/6473407,Sport Gym La Fuente,0
12.1166175,-86.2358434,node/2490583559,relation/6472205,Avenida Pochote,0
12.1015298503,-86.2445917489,relation/6473153,,Plaza Familiar,1
12.13497035,-86.28229315,relation/6473152,,Plaza España Norte,1
12.145435,-86.27380615,relation/6473155,,Plaza Inter,1
12.14019345,-86.2333113,relation/6472319,,Boulevard Bello Horizonte,1
12.11321075,-86.28673595,relation/6472316,,Bosques de Nejapa,1
12.1407099,-86.282787,node/3696093637,relation/6472352,Canal 2,0
12.1392621,-86.2582148,node/7465100723,,Colegio Público España,0
12.1488312,-86.208537,node/2323512951,relation/6472767,Gasolinera Barrio Waspán,0
12.144232,-86.2615905,node/3216618772,relation/4245520,Gancho de Camino,0
12.14228185,-86.3480951,relation/6472337,,Calle 10,1
12.1262823005,-86.2721436511,relation/6473527,,UCA,1
12.16132795,-86.2936896,relation/6472799,,Huellas de Acahualinca,1
12.1391520502,-86.2056210001,relation/6472797,,Materiales de construcción Howard,1
12.1781757,-86.3581633,node/3876874074,relation/6473612,Zona 11 Norte,0
12.1783214,-86.3583468,node/3876874076,relation/6473612,Zona 11 Norte,0
12.1806916,-86.3560829,node/3876874077,relation/6472419,Ciudad Sandino Entrada Norte,0
12.1716821,-86.3581013,node/3876874070,relation/6473610,[Parada sin nombre],0
12.1733825,-86.3582837,node/3876874071,relation/6473602,Zona 11 Sur,0
12.1733825,-86.3584662,node/3876874072,relation/6473602,Zona 11 Sur,0
12.1808065,-86.3562033,node/3876874079,relation/6472419,Ciudad Sandino Entrada Norte,0
12.1547958,-86.288729,node/3705436589,,Partido Camino Cristiano Nicaragüense,0
12.154588,-86.3121211,node/3705436588,,Las Brisas,0
12.14760245,-86.18767805,relation/6472770,,Entrada Unidad de Propósitos,1
12.1549113,-86.29980195,relation/6472771,,Instituto Gaspar García Laviana,1
12.11168545,-86.2342415,relation/6472775,,Germán Pomares,1
12.10436825,-86.22023825,relation/6472777,,Gimnasio Salomón Moreno,1
12.1512502,-86.2759654,node/3273534603,,Miscelánea Lorena,0
12.1233674,-86.1882109,node/286081191,relation/6472511,Comercial Fernández,0
12.1454652,-86.2622486,node/7538011687,relation/6472526,Policía Distrito I Norte,0
12.112966,-86.3139975,node/3247277520,relation/6473107,Parque San Patricio,0
12.1254717,-86.2541078,node/3227474639,relation/6472227,Altamira,0
12.1477268,-86.1896122,node/2730056262,,Funeraria Aurora,0
12.1552443,-86.18876,node/2730056265,relation/6473519,Transagro,0
12.1495494,-86.3017793,node/3240370489,,Pulpería Enmanuel,0
12.1146238,-86.3004787,node/3240370488,relation/6473235,Pulpería Elena,0
12.1534863,-86.2573389,node/3240370485,relation/6473140,Planta Eléctrica,0
12.1573983,-86.2867835,node/3240370484,relation/6473054,Palí Santa Ana,0
12.1146147,-86.3003819,node/3240370487,relation/6473235,Pulpería Elena,0
12.1536993,-86.2295632,node/3240370486,relation/6472210,Agricons,0
12.1536101,-86.263265,node/3240370481,,Iglesia Santo Domingo,0
12.153706,-86.2669416,node/3240370480,relation/6472859,Instituto Loyola,0
12.1481812,-86.2654593,node/2490583742,,Barrio 19 de Julio,0
12.1522152,-86.2428961,node/3240370482,relation/6473351,SINSA Carretera Norte,0
12.1541382,-86.3363546,node/7852133276,,Cuesta El Plomo,0
12.0987082,-86.2297837,node/3284826087,,Saint Dominic School,0
12.1536446,-86.3326156,node/7852133274,,Tropigas,0
12.1532316,-86.2639309,node/7852133272,,Vuelta Casa de las Mangueras,0
12.1551602,-86.2850668,node/7852133273,,Metalúrgica Martínez,0
12.1505971,-86.2646833,node/7852133270,,El Novillo,0
12.1571403,-86.2428646,node/3284826085,,Pulpería Matilde,0
12.1650452,-86.3650301,node/7852133279,,Zona 6,0
12.1092094,-86.22356,node/2490583692,relation/6473440,Tanque Rojo,0
12.1593011,-86.2780464,node/4326802022,relation/6473361,San Sebastián,0
12.1441766,-86.2510199,node/2496955979,,Sala de Belleza Alma,0
12.1212587,-86.273975,node/2501245092,,Farmacia San Lorenzo,0
12.1255411,-86.2035432,node/3285056535,relation/6472478,Colegio San Ignacio de Loyola,0
12.1131208,-86.191042,node/3285056534,relation/6472285,Barrio Israel Gaelano,0
12.1138074,-86.1964764,node/3285056537,,Pulpería Coni,0
12.1239589,-86.1986442,node/3285056536,relation/6472664,Entrada Sur a Laureles Norte,0
12.1119572,-86.2719699,node/2501245098,relation/6473540,UNICIT,0
12.1157034,-86.1885619,node/3285056538,,Pulpería El Maná,0
12.1130913,-86.3140024,node/8033994383,relation/6473107,Parque San Patricio,0
12.1498397,-86.1870064,node/2316390563,,Abogacía Almendárez y Asociados,0
12.0770452,-86.1943496,node/2496955997,relation/6473346,Rótulo Clínica Nuevos Horizontes,0
12.1054254,-86.2237227,node/2496955992,relation/6473354,Salomón Moreno,0
12.0987758,-86.2134055,node/2496955993,relation/6472380,Cementerio Las Jagüitas,0
12.1046601,-86.2515552,node/7538011689,,Semáforos Galerías,0
12.1549122,-86.2748483,node/2760047908,,TELCOR,0
12.1340064,-86.2577932,node/3273534608,relation/6473335,Rotonda Cristo Rey,0
12.1390698,-86.2591768,node/3273534607,,Clínica Ma Auxiliadora,0
12.1443438,-86.2663773,node/3273534606,,Pollo El Granjero,0
12.1515125,-86.2796653,node/3273534605,,Pinturas Nubia Estrada,0
12.1526438,-86.2679445,node/3273534604,relation/6473126,Petronic,0
12.1550652,-86.2771431,node/2760047907,,San Sebastián,0
12.1311378,-86.2474817,node/3273534602,relation/6472255,Avenida Mártires,0
12.1495509,-86.2660755,node/3273534601,,El Novillo,0
12.1274807,-86.2097171,node/2500129758,relation/6472445,Colegio Inmaculada Concepción,0
12.134963,-86.2441898,node/3216618824,relation/6473563,Video Club,0
12.1183255,-86.2393597,node/3216618820,relation/6473407,Sport Gym La Fuente,0
12.1182593,-86.18903645,relation/6472947,,Los Laureles Sur,1
12.1292607,-86.19946985,relation/6472944,,Los Laureles Norte,1
12.12500045,-86.17339615,relation/6472943,,Los Cruces,1
12.1492547501,-86.34863205,relation/6472941,,Los Cocos,1
12.1928195,-86.3648284,relation/6472940,,Los Brasiles,1
12.1129837,-86.19222715,relation/6472949,,Los Mangos,1
12.1568805,-86.1988983,node/4353823105,relation/6472279,Terminal Barrio Camilo Chamorro,0
12.1461098,-86.2429639,node/2500129772,,Farmacia Luis,0
12.106814,-86.2967986,node/3707323719,relation/6472474,Colegio Rodolfo Rodríguez Alvarado,0
12.1016692,-86.2916279,node/3707323718,relation/6472345,Camino a San Isidro de Bolas,0
12.1092999,-86.2351344,node/3277763380,relation/6472261,Pino Uno,0
12.0947427,-86.3071321,node/3735486682,relation/6473164,Plazoleta Camilo Ortega,0
12.0944914,-86.3089398,node/3735486680,,Camilo Ortega 3,0
12.1506221,-86.2720579,node/3277763381,relation/6473099,Parque Luis Alfonso Velásquez,0
12.1399199,-86.2970758,node/3230617633,relation/6473429,Taller El Pelón,0
12.1581747,-86.3679616,node/3230617632,relation/6473317,Redes de Solidaridad,0
12.1603054,-86.3628414,node/3230617631,relation/6473284,Pulpería Romero,0
12.1653635,-86.3643865,node/3230617637,relation/6472366,Casa del Zinc,0
12.1566537,-86.3705277,node/3230617634,relation/6473511,Terminal 113,0
12.1661012,-86.3616667,node/3230617638,relation/6472839,Iglesia San José,0
12.1311665,-86.2478732,node/7896341361,,Avenida Mártires,0
12.1335199,-86.2650886,node/2513648928,,Costado El Sol,0
12.1524888,-86.3059974,node/3216611215,relation/6472393,Centro Comercial Linda Vista,0
12.152205,-86.3063796,node/3216611214,relation/6472393,Centro Comercial Linda Vista,0
12.1579572,-86.2999916,node/3216611213,relation/6473439,Talleres Pellas,0
12.1362488,-86.2508316,node/3216611211,relation/6472592,Semáforo El Dorado,0
12.0814304,-86.2278914,node/3951162799,relation/6472185,10½,0
12.09926485,-86.29848115,relation/6473307,,Quinta Santa Martha,1
12.1532771,-86.2545832333,relation/6473304,,Llantera Centroamericana,1
12.1296314,-86.2278405,node/4325664045,relation/6472498,Colonia Rubenia,0
12.1528516,-86.2514485,node/6221578068,relation/9670467,Antigua Aduana,0
12.1140221,-86.2388879,relation/6473239,,Pulpería Enri,1
12.1546795,-86.3039617,node/3705029095,,Francisco Morazán,0
12.1112021,-86.2166036,node/3705029094,relation/6472207,Agencia Z Gas,0
12.1091171,-86.2166301,node/3705029097,relation/6472273,Barber Shop,0
12.151711,-86.2491565,node/3705029096,relation/6473551,Universidad de las Américas,0
12.1288211,-86.2914258,node/3255740084,,El Recreo Sur,0
12.1088114,-86.2129677,node/3705029098,relation/6472381,Cementerio Milagro de Dios,0
12.0988784,-86.3022333,node/3255740086,relation/6472714,Farmacia El Maestro,0
12.1032868,-86.2217315,relation/6473231,,Pulpería El Alfarero,1
12.1454407,-86.2633627,node/3255740083,relation/6472616,El Panal,0
12.1349562,-86.194397,node/2865703778,relation/6473002,Mercado Mayoreo,0
12.1401591,-86.2470535,node/2523905293,,Puente El Paraisito,0
12.1506725,-86.2232622,node/2399946203,relation/6473411,Sucursal Norte - DISSUR,0
12.1518427,-86.2362831,node/2399946207,,Best Brand Pacas,0
12.143633,-86.2648405,relation/6473013,,Ministerio de Defensa,1
12.1119706,-86.2719054,relation/6473540,,UNICIT,1
12.1412343,-86.2152028,node/2399946195,relation/6473008,Miguel Gutiérrez,0
12.15226305,-86.2851169,relation/6473015,,Ministerio de Hacienda y Crédito Público,1
12.1498212503,-86.3165714,relation/6472543,,Cuesta El Plomo Sur,1
12.1503676,-86.2200954,node/2399946199,,La Danto,0
12.1557850667,-86.3381745002,relation/6472541,,Cuesta El Plomo Norte,1
12.14552605,-86.24964745,relation/6473548,,Uniformes Nicky,1
12.14595915,-86.3048184,relation/6473549,,Universidad Paulo Freire,1
12.1377672,-86.2987436,node/7641858885,,Batahola Sur,0
12.1688275,-86.3426136,node/3230468214,,Entrada Ciudad Sandino,0
12.1468898,-86.2819641,node/7641858888,,Gonper,0
12.0902938,-86.2341178,node/2523905291,relation/6473446,KM 9 Carretera Masaya / Tercera entrada a Santo Domingo,0
12.1549249,-86.2998576,node/2526103023,relation/6472771,Instituto Gaspar García Laviana,0
12.1547708,-86.2712543,node/2526103022,,Palacio Nacional,0
12.145255,-86.2302139,node/3248184374,,Raspados Loli Bello Horizonte,0
12.1440699,-86.2269014,node/3248184375,,Rancho Cubano,0
12.1508091,-86.248936,node/3248184372,relation/4299215,Bar La Rotondita,0
12.1488611,-86.2490939,node/3248184373,,INETER,0
12.1504333,-86.2439214,node/3248184370,relation/6472729,Farmacia Potenza,0
12.1507377,-86.2489323,node/3248184371,relation/4299215,Bar La Rotondita,0
12.1445117,-86.2682506,node/7624214279,,El Redentor 2,0
12.0946975,-86.30710145,relation/6473164,,Plazoleta Camilo Ortega,1
12.1512126,-86.2549667,node/7548562498,,Respuestos ALCO,0
12.1655656,-86.3490312332,relation/6473160,,Plaza Padre Miguel,1
12.1364949,-86.2429457,node/7548562495,,Casa Comunal,0
12.1508608,-86.2525897,node/7548562496,,Radio Libertad,0
12.1417728,-86.2956159,node/7624214274,,Uniplaza Guanacaste,0
12.1482155,-86.2937638,node/7624214277,,Ederli,0
12.1360855,-86.2417766,node/7548562493,,Asados Nora,0
12.14916025,-86.19421155,relation/6472302,,Bertha Díaz,1
12.13707455,-86.2444796,relation/6472305,,Billares Mario Piquete,1
12.1388914,-86.3476148,relation/6472308,,Blanca 2,1
12.1088253,-86.2848891,node/6525136767,,Segunda entrada a Colinas del Memorial Sandino,0
12.1207818,-86.2458525501,relation/6472789,,Hospital Manolo Morales,1
12.13410515,-86.23823905,relation/6472788,,Hospital Japonés,1
12.11752785,-86.25183005,relation/6472785,,Hospital Central,1
12.1170181501,-86.284236,relation/6472781,,Hospedaje San Francisco,1
12.1021673,-86.2184356,node/3320044549,relation/6472581,Parque Los Chilamates,0
12.0916777,-86.1994581,node/3320044548,relation/6472846,Iglesia de Dios de la Profecía Libre,0
12.1487824,-86.2257934,relation/6473495,,Barrio Santa Rosa,1
12.0683251,-86.2006478,relation/6473492,,Terminal Los Vanegas,1
12.0973114,-86.29729645,relation/6473493,,Villa Roma,1
12.126917,-86.198383,relation/6473490,,Terminal Los Laureles Norte,1
12.1561076,-86.3382434,node/2469441740,relation/6472541,Cuesta El Plomo Norte,0
12.1495981,-86.336493,node/3873969505,relation/6472409,Chilamate,0
12.1490906,-86.2815705,node/3320044543,relation/6472578,El Bóer,0
12.1487852,-86.2783206,node/3320044545,relation/6472507,Comedor Getsemani,0
12.073768,-86.1967658,node/3320044544,relation/6472635,Colegio Pablo Antonio Cuadra,0
12.1079511,-86.2869961,relation/6473498,,Terminal Memorial Sandino,1
12.10474705,-86.2287105,relation/6473499,,Terminal Reparto Schick,1
12.1047974,-86.24760785,relation/6472762,,Galerías Santo Domingo Este,1
12.1453373,-86.2895063,node/3247277499,relation/6472323,Budget,0
12.1298183,-86.3002716,node/3247277498,,Bomberos Altagracia (Distrito III),0
12.14888085,-86.2084912,relation/6472767,,Gasolinera Barrio Waspán,1
12.1440843,-86.2919118,node/7691177437,,Banpro,0
12.1143962,-86.2029328,node/7691177439,,Villa Libertad,0
12.1268966,-86.2973211,node/2490583597,,Ferretería El Progreso,0
12.1496688,-86.336259,node/3873814122,relation/6472409,Chilamate,0
12.1296906,-86.3001944,node/3247277497,,Bomberos Altagracia (Distrito III),0
12.1082435,-86.3112038,node/3247277496,relation/6472284,Barrio Germán Pomares,0
12.1310482,-86.2937445,node/2490583593,relation/6472706,Farmacia Buendía,0
12.1383618,-86.2292408,node/3705551219,relation/6473032,Multicentro Sur,0
12.1496603,-86.2663735,node/3273415780,,Sector Este Dupla Sur,0
12.1344474,-86.2580438,node/3273415781,relation/6473335,Rotonda Cristo Rey,0
12.1045574,-86.2230228,node/3273415782,,Escuela Filemón Rivero Quintero,0
12.1007665,-86.222182,node/3273415783,relation/6473473,Terminal 164,0
12.0848836,-86.2292748,node/2523905295,,Bosques de Santa María,0
12.1034878,-86.2506068,node/3951162768,,Hossana,0
12.112132,-86.30074,node/3240370498,relation/6473504,Terminal San Judas,0
12.1170324,-86.297578,node/3240370492,relation/6473286,Iglesia San Judas Tadeo,0
12.1413245,-86.2252652,node/3240370493,,Rotonda La Virgen,0
12.153885,-86.2269623,node/3240370490,relation/6473243,Barrio Selim Shible,0
12.1121195,-86.3006409,node/3240370497,relation/6473504,Terminal San Judas,0
12.1524901,-86.2460855,node/3240370495,relation/6473418,Súper de los Militares,0
12.1578406,-86.3042372,node/7645639291,,Leche Agria,0
12.1288195,-86.281191,node/2462431884,relation/6473114,Edificios El Centro,0
12.1378622,-86.2185694,node/6258861354,,UPOLI Este,0
12.1634182,-86.3659578,node/3869673439,relation/6473468,Terminal 133,0
12.1633479,-86.3659601,node/3869673438,relation/6473468,Terminal 133,0
12.1038333,-86.2213375,node/7899515460,,La Comunal,0
12.1038025,-86.221434,node/7899515462,,La Comunal,0
12.1465138,-86.2658608,node/7899515463,,Distribuidora Suramy,0
12.1087977,-86.2839356,node/3681496687,,Entrada principal a Colinas del Memorial Sandino,0
12.1023333,-86.2611345,node/4404042699,relation/6589724,Entrada a San Isidro,0
12.0822435,-86.2602722,node/4404042698,relation/6589723,Cementerio San Isidro,0
12.148664,-86.2146002,node/3681496686,,Pollo Estrella,0
12.0821753,-86.2605994,node/4404042697,relation/6589723,Cementerio San Isidro,0
12.1169442,-86.2844084,node/3681496684,relation/6472781,Hospedaje San Francisco,0
12.1561762,-86.2133385,node/7639952014,,Cervecería Toña,0
12.1557842,-86.2275535,node/7639952016,,Santa Clara,0
12.1568226,-86.2323292,node/7639952017,,Barbería Charlie's,0
12.1475424,-86.2975077,node/2462431778,,Hospital Dermatológico,0
12.1438483,-86.2588428,node/7639952019,,La Monalisa,0
12.1132222,-86.2868324,node/3681496682,relation/6472316,Bosques de Nejapa,0
12.0791889,-86.2578064,node/7538011696,relation/11128756,Pulpería Marina,0
12.0792547,-86.2577482,node/7538011697,relation/11128756,Pulpería Marina,0
12.0832787,-86.2607115,node/7538011694,relation/11128755,Pulpería Nidia,0
12.0799799,-86.2584686,node/7538011695,relation/11128754,Entrada al Campo Deportivo,0
12.0851557,-86.2611699,node/7538011692,,Centro de Salud,0
12.1149051,-86.2829281,node/3681496681,relation/6473329,Rosa de Saron,0
12.0934457,-86.2625098,node/7538011691,relation/11128711,Entrada a Los Vanegas,0
12.1292219,-86.1994825,node/3708718235,relation/6472944,Los Laureles Norte,0
12.1347425,-86.2119024,node/3708718234,relation/6472622,El Puente 9 de Junio,0
12.1428704,-86.2097541,node/3708718236,relation/6473217,Pulpería Amanda,0
12.1399944,-86.2101427,node/3708718231,relation/6472329,Cafetín Coco,0
12.1343805,-86.2146033,node/3708718233,relation/6473569,Villa 9 de Junio,0
12.0790582,-86.256787,node/7538011699,relation/6473502,Terminal San Isidro,0
12.1192067,-86.2057731,node/2475711918,relation/6472903,La Sabana,0
12.1102962,-86.1970362,node/2475711913,relation/6472687,Escuela la Libertad,0
12.1132353,-86.2011451,node/2475711912,,Villa Libertad Interior,0
12.1228965,-86.2315928,node/2501151830,relation/6472572,14 de Septiembre,0
12.1190982,-86.2057913,node/2475711916,relation/6472903,La Sabana,0
12.1103057,-86.1970571,node/2475711915,relation/6472687,Escuela la Libertad,0
12.1521725001,-86.2833114,relation/6472973,,MTI,1
12.1233409,-86.2092539,relation/6472977,,Madre de Dios Este,1
12.13601095,-86.27690455,relation/6472974,,Mabale,1
12.14414275,-86.2673165,relation/9671224,,Comedor Hossana,1
12.1165241,-86.2828583,node/3681496689,relation/6473449,Hialeah,0
12.1384094,-86.2239746,node/3681496688,relation/6473310,RUPAP,0
12.1249391,-86.1733702,node/3275463509,relation/6472943,Los Cruces,0
12.1243965,-86.2185879,node/3275463508,relation/6472829,Iglesia Mormona,0
12.1170326,-86.1998475,node/3275463501,relation/6473577,Villa Libertad,0
12.1289846,-86.2447727,node/3275463500,,Escuela de Manejo,0
12.1242723,-86.2211264,node/3275463503,relation/6472725,Farmacia Mery,0
12.1242428,-86.2210244,node/3275463502,relation/6472725,Farmacia Mery,0
12.120996,-86.2313323,node/3275463505,relation/6472817,Iglesia Inmaculada Concepción,0
12.1232233,-86.2105414,node/3275463504,,Farmacia Villa Venezuela,0
12.1459028,-86.2893455,node/3943661305,relation/6472915,Las Palmas,0
12.1207552,-86.2218005,node/3275463506,relation/6472823,Iglesia Madre del Divino Amor,0
12.1458234,-86.2821416,node/3230617621,,27 De Mayo,0
12.1662432,-86.3546053,node/3230617623,relation/6472835,Iglesia San Francisco,0
12.145504,-86.2790944,node/3230617624,,Antiguo Cine Cabrera,0
12.1431798,-86.2922902,node/3230617626,,Maquipos,0
12.1591015,-86.3641652,node/3230617628,relation/6473227,Pulpería Duarte,0
12.1586538,-86.3718217,node/3230617629,relation/6472463,Colegio Nueva Vida,0
12.1162653,-86.2729664,node/2430431082,relation/6473313,Radio Universidad,0
12.1656372,-86.3575003,node/3230468198,relation/6472219,Alcaldía de Ciudad Sandino,0
12.0742408,-86.2200525,node/3062678747,,Embajada de Guatemala,0
12.1491587,-86.1942752,node/4332740698,relation/6472302,Bertha Díaz,0
12.16533695,-86.3577541,relation/6472991,,Mercadito de Ciudad Sandino,1
12.1233215503,-86.2426643508,relation/6472993,,Mercado Huembes Sureste,1
12.1287664,-86.15951,node/4076225145,relation/6472417,Ciudad Belén,0
12.1266796,-86.2748462,node/2746534604,relation/6473051,Palí,0
12.1275228,-86.3013766,relation/6472997,,Mercado Israel Lewites Oeste,1
12.1290072,-86.1594098,node/4076225148,relation/6472417,Ciudad Belén,0
12.1738428,-86.3640726,node/3876761729,relation/6473603,Barrio 4 de Abril,0
12.1462466,-86.2458352,node/2500129953,,Taller Joe,0
12.0835915,-86.2320253,node/7529503761,,UNICA Oeste,0
12.1536263,-86.3061664,node/7550340303,,Inmaculada Concepción,0
12.1464726,-86.2378891,node/2500129950,relation/6472563,El Colonial,0
12.146071,-86.2346202,node/2500129957,relation/6473331,Rotonda Bello Horizonte Oeste,0
12.1263697,-86.241792,node/3216611209,relation/6473085,Parque Don Bosco (Mercado Huembes),0
12.1464885,-86.2467561,node/2500129954,,Mataburros Pancasán,0
12.1559049,-86.3129332,node/7550340308,,Segunda Calle,0
12.0903421,-86.2450066,node/2482595272,relation/6472913,Las Calderas,0
12.15055485,-86.34557185,relation/6473229,,Pulpería Ebenezer,1
12.1269145,-86.1983519,node/3306788926,relation/6473490,Terminal Los Laureles Norte,0
12.1183201,-86.2937174,node/3306788924,relation/6473415,Super Boutique,0
12.1080036,-86.2869695,node/3306788925,relation/6473498,Terminal Memorial Sandino,0
12.1206302,-86.2943339,node/3306788922,relation/6473295,Pulpería Wendy,0
12.1386592,-86.3019102,node/3306788923,relation/6473400,Sitel,0
12.1087695,-86.2871802,node/3306788920,relation/6473402,Memorial Sandino Norte,0
12.1091079,-86.290993,node/3306788921,relation/6473178,Pozo Enacal,0
12.1392016,-86.2052799,node/2865703769,relation/6472797,Materiales de construcción Howard,0
12.1450075,-86.2993525,node/3227474915,relation/6473434,Taller Murillo,0
12.1404197,-86.2143278,node/3227474912,relation/6473383,Semáforos San Jacinto,0
12.12726185,-86.26575125,relation/6473005,,Metrocentro,1
12.1518557,-86.2402509,node/7545633020,,Compañía Recicladora,0
12.1576779,-86.29219685,relation/6473003,,Mercado Oriental II,1
12.15191395,-86.25870895,relation/6472579,,El Calvario,1
12.1520775,-86.2427903,node/2436184758,,Calbri Internacional,0
12.10188085,-86.24998615,relation/6472575,,El Barrio,1
12.12270975,-86.2316983501,relation/6472572,,14 de Septiembre,1
12.1414,-86.2152835999,relation/6473008,,Miguel Gutiérrez,1
12.1456917,-86.237454,node/2316287394,relation/6473101,Parque Maestro Gabriel,0
12.1379372504,-86.2906406,relation/6473311,,La Racachaca,1
12.1383655,-86.22397145,relation/6473310,,RUPAP,1
12.1165597,-86.2730964499,relation/6473313,,Radio Universidad,1
12.13745865,-86.2166678,relation/6473314,,Rafaela Herrera,1
12.15825495,-86.3679849,relation/6473317,,Redes de Solidaridad,1
12.1122822,-86.22478625,relation/6473319,,René Polanco,1
12.0855008,-86.2620221,node/4405618111,relation/6593166,Iglesia San Isidro,0
12.0855053,-86.2618736,node/4405618112,relation/6593166,Iglesia San Isidro,0
12.0809308,-86.2598078,node/4405618113,relation/6593167,Mini Agencia Ponce,0
12.1423338,-86.3479622,node/3870181526,relation/6472337,Calle 10,0
12.1422299,-86.348228,node/3870181525,relation/6472337,Calle 10,0
12.1548977,-86.2997463,node/2526103030,relation/6472771,Instituto Gaspar García Laviana,0
12.1388927,-86.3476967,node/3870181524,relation/6472308,Blanca 2,0
12.1578704,-86.2996053,node/2526103035,relation/6473439,Talleres Pellas,0
12.1027409,-86.3082528499,relation/6473179,,Pre-escolar Hossana,1
12.1091124,-86.291023,relation/6473178,,Pozo Enacal,1
12.1467544,-86.19522955,relation/6473170,,Policía Distrito VI,1
12.1283328,-86.2515315,node/2911721961,relation/6472454,Colegio Luis Alfonso Velásquez,0
12.1026377502,-86.2659934001,relation/6473176,,Porta,1
12.1516717,-86.1862362,relation/6472375,,Cayetana Alberta,1
12.15983125,-86.36675905,relation/6472373,,Cauce,1
12.1525356,-86.29119925,relation/6472378,,Cementerio Central,1
12.1343524,-86.2995385,node/2519097839,relation/6473091,Parque Héroes y Mártires,0
12.1476031,-86.3428587,node/3876761699,relation/6472624,El Puente,0
12.1399915,-86.3477646,node/3870181963,relation/6473467,Terminal 125,0
12.139981,-86.3475068,node/3870181962,relation/6473467,Terminal 125,0
12.1322889,-86.3402134,node/3870181960,relation/6473197,Puente Motastepe,0
12.0722164,-86.1974553,node/3320044552,relation/6473486,Terminal 262,0
12.0865511,-86.1938238,node/3320044550,relation/6473279,Pulpería Nohelia,0
12.1364804,-86.3460428,node/3870181964,relation/6473587,Vuela Rey de Reyes,0
12.11182035,-86.20863455,relation/6473483,,Terminal 195,1
12.1226672,-86.1657124,node/4404151522,relation/6472660,Centro Escolar Benito Pitito,0
12.1167701,-86.1969518,relation/6473487,,Laureles Sur,1
12.07221965,-86.19751235,relation/6473486,,Terminal 262,1
12.1404057,-86.2596442,node/3333023393,,Disco Bar Santo Domingo,0
12.1453717007,-86.1707655001,relation/6472202,,Aeropuerto,1
12.1241454,-86.2834581,node/3333023397,relation/9676222,Universidad del Valle,0
12.11659515,-86.2358845,relation/6472205,,Avenida Pochote,1
12.1395809,-86.1961737,node/3333023395,relation/6472515,Concepción de María,0
12.11119985,-86.21658285,relation/6472207,,Agencia Z Gas,1
12.15983935,-86.2906745,relation/6472199,,Acahualinca Este,1
12.1324436,-86.23534,node/2490583574,,Farmacia Vicky,0
12.1597997,-86.35015175,relation/6472192,,ALKE Ciudad Sandino,1
12.1554466502,-86.2913994,relation/6472195,,ALKE,1
12.11030095,-86.19704665,relation/6472687,,Escuela la Libertad,1
12.1091006,-86.22760705,relation/6472681,,Escuela Adventista,1
12.0717183,-86.2177103,node/4896270222,,Km 12 Carretera a Masaya,0
12.1479449,-86.2410202,node/4334598726,,Barrio Costa Rica,0
12.1169185,-86.2967265,node/3240370467,relation/6472580,El Ceibo,0
12.1560941,-86.2364556,node/3240370466,relation/6473280,Incnik Raya,0
12.1488409,-86.2924511,node/3240370465,,Casino Atlantic City,0
12.1524117,-86.2384819,node/3240370464,,IMISA,0
12.1514258,-86.3044898,node/3240370463,relation/6472933,Linda Vista Sur,0
12.1552522,-86.2896994,node/3240370462,,Asados El Novillo,0
12.1551903,-86.2968792,node/7645639288,,Paraisito,0
12.1531163,-86.2919909,node/7645639287,,Costado Este del Cementerio,0
12.152289,-86.2873252,node/7645639285,,Maxi Palí,0
12.1559632,-86.2381458,node/3240370469,relation/6472447,Colegio José de la Cruz Mena,0
12.1188279,-86.2963246,node/3240370468,,Colegio Bautista Belén,0
12.1524835,-86.2606909,node/6707709140,relation/6472232,Antigua Cervecería Victoria,0
12.1471143,-86.2179112,node/2500129839,,Hospital Alemán Nicaragüense,0
12.1385383,-86.2590198,node/7899515459,,Cristo Rey,0
12.1443083,-86.2824326,node/2496956010,,Panadería Norma,0
12.1167641,-86.2585876,node/2462431969,relation/6472484,Colegio Teresiano,0
12.14754275,-86.3428671,relation/6472624,,El Puente,1
12.0763793,-86.2132492,node/3951192775,relation/6472883,La Ermita de Esquipulas,0
12.1210068,-86.2426899,node/7639952025,,Hospedaje Playboy,0
12.11486015,-86.2538632501,relation/6472625,,El Quetzal,1
12.1393447,-86.2582031,node/7639952020,,Colegio Público España,0
12.1208984,-86.224869,node/2865607780,relation/6473185,Primero de Mayo,0
12.0814678,-86.2360413,node/3951192772,relation/6472619,El Poste Blanco,0
12.1323606,-86.24459,node/3216618808,relation/6473075,Parque 10 de Junio,0
12.1238517,-86.2422781,node/3216618803,relation/6472993,Mercado Huembes Sureste,0
12.1389972,-86.2566804,node/3216618804,relation/6473040,PMS Construcciones,0
12.1323954,-86.2447001,node/3216618807,relation/6473075,Parque 10 de Junio,0
12.1391021,-86.2566546,node/3216618806,relation/6473040,PMS Construcciones,0
12.1039693,-86.2217633,node/6910671289,relation/6472732,Farmacia Fabiola,0
12.13800465,-86.2036920501,relation/6472969,,MATEPSA,1
12.0954197503,-86.2390529997,relation/6472967,,Instituto de Desarrollo Rural,1
12.1530088,-86.2824784,node/7645624180,,Antiguo Estadio Nacional Norte,0
12.1501618,-86.3195288,node/6522155560,relation/9671023,Terminal de la Ruta 114,0
12.0694504,-86.1997376,node/7538589638,,Terminal Esquipulas,0
12.0746765,-86.2054883,node/7538589639,,Costura Germán,0
12.1383846,-86.2218424,node/3110317354,,Bar Doña Thel,0
12.14646075,-86.2640661,relation/6473507,,Terminal Vanegas,1
12.1362999,-86.2198378,node/3452608684,relation/6473545,UPOLI Sur,0
12.1393917,-86.226508,node/3237278984,relation/6473581,Villa Progreso,0
12.1248137,-86.2236384,node/3452608680,relation/6472837,Iglesia San José Obrero,0
12.1273435,-86.2659145,node/3452608681,relation/6473005,Metrocentro,0
12.1368831,-86.2092321,node/3452608682,relation/6473465,Terminal 119,0
12.1290432,-86.2200698,node/3452608683,relation/6472277,Barrio Américas 1,0
12.150154,-86.2900704,node/3237278831,,Desarme El Rubio,0
12.1278606,-86.2118962,node/2500129775,,Clínica Las Américas,0
12.1276939,-86.2150402,node/3275463516,relation/6473390,Semáforos Sandak,0
12.143073,-86.2605052,node/3275463517,,Taller de Mecánica,0
12.1341988,-86.2498314,node/3275463514,relation/6472255,El Dorado,0
12.1176956,-86.1959538,node/3275463515,relation/6473037,Omar Téllez Sánchez,0
12.1194357,-86.2079007,node/3275463512,,Miscelánea La Unión,0
12.122523,-86.2318039,node/3275463510,relation/6472572,14 de Septiembre,0
12.1217318,-86.2281988,node/3275463511,relation/6473377,Semáforos Jardines de Veracruz,0
12.1389563,-86.2466998,node/3704149060,relation/6473387,Semáforo El Paraisito,0
12.1403881,-86.2488629,node/3704149061,relation/6473425,Taller Changai,0
12.1500846,-86.2951082,node/3237278964,,Pulpería Cinthia,0
12.1553126,-86.2804409,node/3237278962,,Pulpería Albertina,0
12.1167227,-86.1969608,node/3275463518,relation/6473487,Laureles Sur,0
12.1168175,-86.1969428,node/3275463519,relation/6473487,Laureles Sur,0
12.1466481,-86.2136105,node/2436184789,relation/6473427,Taller Conrado,0
12.1670644,-86.3594459,node/3230617619,relation/6472950,Los Masayas,0
12.1388225,-86.3312313,node/3230617614,relation/6472871,KM 9,0
12.165308,-86.3490015,node/3230617617,relation/6473160,Plaza Padre Miguel,0
12.1682998,-86.3435461,node/3230617616,relation/6472669,Entrada a Ciudad Sandino,0
12.1678898,-86.3503022,node/3230617613,relation/6473129,Pinar del Río,0
12.1674823,-86.3520969,node/3230617612,relation/6472599,El Gallo Más Gallo,0
12.1359198,-86.2382537,node/3286646365,relation/6472928,Barrio Meneses,0
12.1419517,-86.2205865,node/3243192671,relation/6472603,El Manguito,0
12.1455536,-86.2321116,node/3243192670,relation/6473079,Parque Amistad,0
12.1572405,-86.2839268,node/2436184780,relation/6472747,Ferretería El Serrucho,0
12.1366702,-86.2884961,node/3255740088,,Pulpería Papachano,0
12.1313701,-86.2904845,node/3255740089,relation/6472299,Colegio Benjamín Zeledón,0
12.1738456,-86.3639217,node/3876761730,relation/6473603,Barrio 4 de Abril,0
12.1516437,-86.3090949,relation/6472982,,Manuel Olivares,1
12.12294025,-86.1949584,relation/6472981,,Manuel Fernández,1
12.1394237001,-86.2088160001,relation/6472987,,Maxi Palí Larreynaga,1
12.0682684,-86.2006685,node/7529503758,relation/6473492,Terminal Los Vanegas,0
12.1568471502,-86.2295058001,relation/6472985,,Materiales de Construcción Santa Clara,1
12.1090605,-86.2276009,node/3216611239,relation/6472681,Escuela Adventista,0
12.1556518,-86.2879709,node/3705029099,relation/6472611,El Arbolito,0
12.1325175,-86.2301702,node/2500129942,relation/6473117,Paso a desnivel Rubenia,0
12.1446289503,-86.2612102006,relation/4245520,,Gancho de Camino,1
12.1453735,-86.2298761,node/2500129945,,Parroquia Pío X,0
12.1033855,-86.29681715,relation/6473233,,Pulpería El Bulky,1
12.1442184,-86.2667235,node/3216611231,relation/6472630,El Redentor,0
12.1441639,-86.26712,node/3216611230,relation/6472630,El Redentor,0
12.1095725,-86.2320563,node/3216611233,relation/6472643,Empalme,0
12.1096633,-86.2319678,node/3216611235,relation/6472643,Empalme,0
12.1046298,-86.2256699,node/3216611236,relation/6472648,Enrique de Ossó,0
12.1489261,-86.1582559,node/5200757312,relation/6473598,Zona Franca Las Mercedes,0
12.1383588,-86.2270693,node/2487035823,relation/6473396,Semáforos Villa Progreso,0
12.1531356,-86.3044132,node/3707167634,,Semáforos de Linda Vista,0
12.11461925,-86.3004303,relation/6473235,,Pulpería Elena,1
12.1474832,-86.2642012,node/3870060181,relation/6473469,Terminal de Retorno 133,0
12.1022459,-86.2449988,node/2523905288,relation/6473153,Plaza Familiar,0
12.0956306,-86.2394292,node/2523905281,relation/6472967,Instituto de Desarrollo Rural,0
12.0695988,-86.2071153,node/2523905282,relation/6473065,Alborada,0
12.0695369,-86.2048754,node/2523905283,relation/6473067,Cenicera,0
12.0699175,-86.2116177,node/2523905284,relation/6473069,El Avispero,0
12.0695993,-86.2058269,node/2523905285,relation/6473070,El Chato,0
12.069093,-86.2033939,node/2523905286,relation/6473073,Los Rocha,0
12.1008138,-86.2441847,node/2523905287,relation/6473153,Plaza Familiar,0
12.1203118,-86.1956097,node/7896341349,,Manuel Fernández,0
12.1340975,-86.2495282,node/7896341346,,El Dorado,0
12.1199512,-86.2611722,node/3449592862,,Pharaoh's,0
12.1266488,-86.2233555,node/3449592863,relation/6473105,Parque Primero de Mayo,0
12.1163457,-86.2579002,node/3449592860,relation/6472484,Colegio Teresiano,0
12.1271802,-86.265588,node/3449592861,relation/6473005,Metrocentro,0
12.136887,-86.2091113,node/3449592866,relation/6473465,Terminal 119,0
12.1498225,-86.3169783,node/3449592867,relation/6472543,Cuesta El Plomo Sur,0
12.1372734,-86.2090837,node/3449592864,,Pulpería July,0
12.1542887,-86.298127,node/3449592865,,Semáforos La Ceibita,0
12.1242941,-86.2645879,node/3449592868,relation/6472262,Ministerio Público,0
12.1489179,-86.2899015,node/3240370479,,Impresiones Arca,0
12.1344294,-86.2146007,relation/6473569,,Villa 9 de Junio,1
12.1350066,-86.24418245,relation/6473563,,Video Club,1
12.09714135,-86.24820045,relation/6473566,,Viejo Santo Domingo,1
12.0809733,-86.2598049,node/4405618124,relation/6593167,Mini Agencia Ponce,0
12.1576335,-86.36034785,relation/6473366,,Santa Eduviges,1
12.1258541,-86.23680295,relation/6473367,,Santa Julia,1
12.15925415,-86.27804245,relation/6473361,,San Sebastián,1
12.1571085,-86.2820512501,relation/6473363,,Santa Ana,1
12.15512005,-86.2183501,relation/9664845,,Parque La Primavera,1
12.1598089,-86.3667246,node/3870060167,relation/6472373,Cauce,0
12.1671026,-86.3597009,node/3870060166,relation/6472950,Los Masayas,0
12.1555807,-86.2879721,node/3870060169,relation/6472611,El Arbolito,0
12.1598536,-86.3667935,node/3870060168,relation/6472373,Cauce,0
12.16671195,-86.36469075,relation/6473109,,Parque Zona 5,1
12.1402989,-86.2997016,node/3697905645,relation/6473530,UCEM,0
12.12663275,-86.2232978,relation/6473105,,Parque Primero de Mayo,1
12.11302865,-86.31399995,relation/6473107,,Parque San Patricio,1
12.14565085,-86.2375331,relation/6473101,,Parque Maestro Gabriel,1
12.14839425,-86.29627175,relation/6473103,,Parque Mennen,1
12.1654334,-86.3643848,relation/6472366,,Casa del Zinc,1
12.1586881,-86.3518915,relation/6472362,,Casa del Adulto Mayor Zona 8,1
12.0752957,-86.2293474,relation/6472360,,Casa España,1
12.1620066,-86.3647032,node/3870060187,relation/6472675,Entrada a Nueva Vida,0
12.1544301,-86.3341285,node/3870060186,relation/6473522,Cemex,0
12.1540886,-86.3341285,node/3870060185,relation/6473522,Cemex,0
12.1502409,-86.3198122,node/3870060184,relation/9671024,Unimar,0
12.1500228,-86.3197765,node/3870060183,relation/9671024,Unimar,0
12.1534975,-86.3008978,node/3870060182,relation/6473515,Tortillería Alicia,0
12.1295142,-86.2649646499,relation/6472369,,Catedral de Managua,1
12.1472418,-86.2642334,node/3870060180,relation/6473469,Terminal de Retorno 133,0
12.1315011504,-86.2410767001,relation/6472561,,Don Bosco,1
12.1130639,-86.22239995,relation/6472560,,Domingo Matus,1
12.1464383501,-86.2381436,relation/6472563,,El Colonial,1
12.1402268,-86.3075013,relation/6472566,,ENACAL,1
12.12427105,-86.27683325,relation/6472569,,ENEL Central,1
12.1446514,-86.2375131,node/6266881219,,Farmacias Ebenezer,0
12.1276905,-86.2149838,relation/6473390,,Semáforos Sandak,1
12.17167615,-86.35816615,relation/6473610,,Parada sin nombre,1
12.1656051001,-86.3572932,relation/6472219,,Alcaldía de Ciudad Sandino,1
12.1085113,-86.1913182,node/7712410470,,Taller Olivas,0
12.0899393,-86.3095223,relation/6473614,,Camilo Ortega 1,1
12.1599877,-86.19543425,relation/6473615,,Terminal Berta Díaz,1
12.1410726,-86.2418829,node/2490583571,,El Edén,0
12.14670985,-86.21375125,relation/6473427,,Taller Conrado,1
12.13933625,-86.29358105,relation/6472211,,Agroalfa,1
12.1537686,-86.2295304,relation/6472210,,Agricons,1
12.1279365016,-86.2962609997,relation/6472217,,Alcaldía de Managua,1
12.1573080001,-86.2837206501,relation/6472747,,Ferretería El Serrucho,1
12.15231015,-86.2899116,relation/6472214,,Agrosa,1
12.1607231,-86.34844115,relation/6472187,,15 de Julio,1
12.08145195,-86.22788525,relation/6472185,,10½,1
12.0750911,-86.20968005,relation/6472697,,FUTEC,1
12.1624672,-86.1891209,node/2730056259,relation/6473459,Villa José Benito Escobar,0
12.1465931,-86.2873395498,relation/6472693,,Estátua de Montoya,1
12.1363552,-86.21983515,relation/6473545,,UPOLI Sur,1
12.1515049,-86.1891116,node/2730056254,relation/6473046,Palí Las Mercedes,0
12.1549368,-86.3525003,relation/6473580,,Villa Nueva,1
12.1393038001,-86.2267880001,relation/6473581,,Villa Progreso,1
12.0743277022,-86.1996257494,relation/6473584,,Vistas de Esquipulas,1
12.1441372,-86.2265726,node/3243192672,,Reparto Pedro Aráuz Palacios,0
12.13074135,-86.2749330001,relation/6473586,,Vivero,1
12.13654605,-86.34592465,relation/6473587,,Vuela Rey de Reyes,1
12.1153549501,-86.2325281,relation/6473589,,Vuelta II,1
12.1574845,-86.28956,node/2436184784,relation/6472840,Entrada Norte Iglesia Santa Ana,0
12.14018025,-86.26780405,relation/6473017,,Mirador Tiscapa,1
12.1531039,-86.3019281,node/3240370474,,Farmacia Pérez Morales,0
12.1526786,-86.2482815,node/3240370475,,Ferretería El Halcón,0
12.1493276,-86.2985728,node/3240370476,,Fotos Luminton,0
12.123054,-86.244813,node/3240370477,relation/6473647,Mercado Huembes Suroeste,0
12.1253297,-86.2955552,node/3240370470,,Colegio Cristiano La Senda,0
12.1533604,-86.2242147,node/3240370471,relation/6472551,Disagro,0
12.1536375,-86.2591354,node/3240370472,,ENABAS,0
12.1171415,-86.3001133,node/3240370473,relation/6472721,Farmacia Helena,0
12.157341,-86.2896417,node/3240370478,,Costado Este Iglesia Santa Ana,0
12.15306895,-86.1992176,relation/6474755,,Colegio Camilo Zapata,1
12.1551957,-86.1840753,node/2311666892,relation/6473451,Terminal 105,0
12.0692158,-86.2034653,node/2513648938,relation/6473073,Los Rocha,0
12.1228539,-86.2240672,node/2865719161,relation/6472467,Colegio Primero de Mayo,0
12.0701084,-86.2137815,node/2513648930,relation/6472679,Entrada a la base,0
12.0696528,-86.2097583,node/2513648933,relation/6472957,Los Robles,0
12.1249075,-86.2650716,node/2865719162,relation/6472262,Ministerio Público,0
12.0696595,-86.2049052,node/2513648935,relation/6473067,Cenicera,0
12.0696845,-86.2071697,node/2513648934,relation/6473065,Alborada,0
12.1282643,-86.2131539,node/7276067188,,Calle El Tamarindo,0
12.0700286,-86.2117212,node/2513648936,relation/6473069,El Avispero,0
12.1783335,-86.3624555,node/7644921559,,Garita Valle Sandino,0
12.1089073,-86.2289429,node/7639952032,,Amanda Aguilar,0
12.1178599,-86.2387919,node/7639952033,,Palí La Fuente,0
12.1054082,-86.2235959,node/7639952030,,Salomón Moreno,0
12.1375655,-86.2535434,node/7639952036,,Comedor Apostólico,0
12.1758336,-86.3687356,node/7644921552,,Colegio,0
12.1153703,-86.2322494,node/2490583621,relation/6473589,Vuelta II,0
12.1764528,-86.3695636,node/7644921550,,Terminal Villa Sandino,0
12.1402249,-86.2655414,node/2513648931,relation/6472534,Cruz Azul,0
12.1592256,-86.2791756,node/2573989209,relation/6472528,Cristo del Rosario Este,0
12.1598277,-86.2875033,node/2573989208,relation/6473143,Plantel Central,0
12.1596882,-86.2874516,node/2573989207,relation/6473143,Plantel Central,0
12.1130803,-86.2035829,node/2475711937,relation/6473463,Terminal 116,0
12.115766,-86.2370703,node/3216618815,,Pulpería Josseling,0
12.1123964,-86.2005473,node/2475711931,relation/6473254,Pulpería Karolina,0
12.0696982,-86.2058422,node/2513648937,relation/6473070,El Chato,0
12.1450259,-86.2608299,node/3216618810,relation/4245520,Gancho de Camino,0
12.1124983,-86.2005343,node/2475711932,relation/6473254,Pulpería Karolina,0
12.1392159,-86.227068,node/3240370508,relation/6473581,Villa Progreso,0
12.1228576,-86.2450302,node/3707323720,relation/6473647,Mercado Huembes Suroeste,0
12.084198,-86.2384593,node/7538589649,,Colegio Girasol,0
12.0842551,-86.2384211,node/7538589648,,Colegio Girasol,0
12.0759373,-86.2152524,node/7538589643,,Iglesia Esquipulas,0
12.0745106,-86.2020651,node/7538589641,,Bar y Billar El Gato,0
12.0745703,-86.2258902,node/7538589647,,Hotel Contempo,0
12.0742608,-86.2193935,node/7538589645,,Entrada a Esquipulas,0
12.1758599,-86.3642651,node/7644921557,,Comercial López Reyes,0
12.1243454,-86.2001854,node/3285056540,relation/6473136,Andrés Castro,0
12.1145602,-86.1907907,node/3285056541,,Pulpería Rosita,0
12.116981,-86.1915539,node/3285056542,relation/6473477,Terminal 167,0
12.1182174,-86.1890451,node/3285056543,relation/6472947,Los Laureles Sur,0
12.1758463,-86.3665831,node/7644921555,,Farmacia Jazmín,0
12.1354297,-86.2289792,node/2500129791,,UCyT,0
12.1267427,-86.2081626,node/2500129790,relation/6472428,Clínica Dental,0
12.1402037,-86.265429,node/3704149055,relation/6472534,Cruz Azul,0
12.1252843,-86.2399477,node/3704149054,,Comedor Liliam,0
12.1405756,-86.2511814,node/3704149057,relation/6472826,Pro Mujer,0
12.1258228,-86.2368068,node/3704149056,relation/6473367,Santa Julia,0
12.130917,-86.2667196,node/3704149051,,Rotonda Rubén Darío,0
12.1370452,-86.244494,node/3704149050,relation/6472305,Billares Mario Piquete,0
12.1372195,-86.2659384,node/3704149053,relation/6472483,Universidad Humanista UNEH,0
12.140033,-86.2549566,node/3704149052,,Central de Azulejos,0
12.1524081,-86.2430147,node/3237278974,relation/6473351,SINSA Carretera Norte,0
12.152694,-86.2462398,node/3237278975,relation/6473418,Súper de los Militares,0
12.1314984,-86.2435085,node/3704149059,relation/6473082,Parque Colombia,0
12.1435803,-86.2647998,node/3704149058,relation/6473013,Ministerio de Defensa,0
12.1171258,-86.2975558,node/3237278972,relation/6473286,Iglesia San Judas Tadeo,0
12.1417598,-86.224865,node/3237278973,,Rotonda La Virgen,0
12.1462578,-86.2871925,node/3230617608,relation/6472693,Estátua de Montoya,0
12.1322291,-86.3137957,node/3230617609,relation/6472919,Las Piedrecitas,0
12.1526418,-86.2482814,node/4340170477,,Ajax Delgado Norte,0
12.1034202,-86.2332239,node/4340170475,relation/6472808,Iglesia Adventista,0
12.1449178,-86.2761379,node/3230617602,,Hotel Morgut,0
12.1665435,-86.346628,node/3230617600,relation/6473359,San Benito,0
12.1440936,-86.2911185,node/3230617606,relation/6472761,Fósforera,0
12.1635742,-86.3648207,node/3230617605,relation/6472390,Centro Comercial Francisco,0
12.1518117,-86.3000576,node/2526103025,relation/6473096,Parque José de San Martín,0
12.1517579,-86.2999544,node/2526103024,relation/6473096,Parque José de San Martín,0
12.108657,-86.2508091,node/3507554638,relation/6473028,Movistar,0
12.1270604,-86.2451841,node/3985476678,,Policía de Tránsito,0
12.1507816,-86.3485914,node/3876761709,relation/6473223,Pulpería Diarte,0
12.1507734,-86.24893415,relation/4299215,,Bar La Rotondita,1
12.1130694,-86.2224162,node/3299544125,relation/6472560,Naná,0
12.1500921,-86.3413986,node/3876761704,relation/6472897,La Panadería,0
12.1653568,-86.3488884,node/3876761707,relation/6473160,Plaza Padre Miguel,0
12.112629,-86.218849,node/3299544126,relation/6472357,Capilla Santa Teresita,0
12.1523789,-86.3409081,node/3876761701,relation/6472877,La Casa de Campaña,0
12.1628825,-86.3552654,node/3876761700,relation/6472865,Juzgados Ciudad Sandino,0
12.1454247,-86.1701629,node/3299544123,relation/6472202,Aeropuerto,0
12.1523915,-86.3410052,node/3876761702,relation/6472877,La Casa de Campaña,0
12.1272379,-86.2823026,node/6981689172,relation/6473336,Rotonda El Periodista,0
12.1093894,-86.224891,node/3216611226,relation/6472477,Colegio Salomón Ibarra,0
12.1375488,-86.253452,node/3216611227,,Comedor Apostólico,0
12.1092995,-86.2249958,node/3216611225,relation/6472477,Colegio Salomón Ibarra,0
12.1369573,-86.2536565,node/3216611229,,Variedades Molina,0
12.160061,-86.2937983,node/3705789504,relation/6473078,Parque Acahualinca,0
12.1205116,-86.2090664,node/2475807999,relation/6472879,La Chelita,0
12.1449986,-86.2337504,node/3705789506,relation/6473333,Rotonda Bello Horizonte Sur,0
12.1121298,-86.1975845,node/7568642183,,Sport Bar Hills,0
12.1454006,-86.2975913,node/7624214276,,Banco Popular,0
12.1494423,-86.2246229,node/6294670762,,Terminal de la MR4,0
12.1514163,-86.2370197,node/3705435739,relation/6472555,Distribuidora La Universal,0
12.1404221,-86.2926146,node/3243922914,,Pulpería Nanda,0
12.1280256,-86.2348665,node/7896341359,,Nicarao,0
12.1441581,-86.2912755,node/3243922911,relation/6472761,Fósforera,0
12.145755,-86.289217,node/3243922910,relation/6472323,Budget,0
12.1469284,-86.2874866,node/3243922913,relation/6472693,Estátua de Montoya,0
12.1484197,-86.2495522,node/3243922912,,Hospital Solidaridad,0
12.1207504,-86.1660592,node/7896341352,,Campo deportivo,0
12.1281003,-86.1607547,node/7896341353,,Centro de Salud,0
12.1183699,-86.1672708,node/7896341351,,Cementerio San José,0
12.1229264,-86.1716563,node/7896341356,,Farmacia Aracely,0
12.1290828,-86.2340626,node/3705435737,,Colonia Nicarao,0
12.1523231,-86.3090229,node/3705435736,,Colegio Manuel Olivares,0
12.1525937,-86.2912014,node/3217862884,relation/6472378,Pulpería el Carmen,0
12.1451594,-86.1672547,node/7545633008,,INAC,0
12.1521926,-86.2403359,node/7545633006,,Big Cola,0
12.1515886,-86.3090624,node/7246432348,relation/6472982,Manuel Olivares,0
12.1234171,-86.21890385,relation/6473574,,Villa Flor Norte,1
12.1170716003,-86.2001149667,relation/6473577,,Villa Libertad,1
12.150837,-86.2494014,node/7182933831,relation/6472803,Uno Hospital Solidaridad,0
12.1025066,-86.22385095,relation/6473572,,Villa Cuba Libre,1
12.1218246501,-86.2283740999,relation/6473377,,Semáforos Jardines de Veracruz,1
12.144535,-86.3350624,relation/6473373,,Satelite de Asososca,1
12.13594575,-86.24195445,relation/6473372,,Sastrería Estilo y La Moda,1
12.1342839501,-86.1995002248,relation/6473379,,Semáforos Mayoreo,1
12.1616511,-86.3653068,node/3870060172,relation/6472657,Entrada Nueva Vida,0
12.1669194,-86.3532609,node/3870060173,relation/6472727,Farmacia Nefi,0
12.1550573,-86.2941411,node/3870060170,relation/6473196,Puente León,0
12.1616511,-86.3652723,node/3870060171,relation/6472657,Entrada Nueva Vida,0
12.1675051,-86.3586686,node/3870060176,relation/6473592,Vuelta de la Uno,0
12.1551964,-86.2941733,node/3870060177,relation/6473196,Puente León,0
12.1655503,-86.3628736,node/3870060174,relation/6472893,La Palmera,0
12.1655595,-86.3630265,node/3870060175,relation/6472893,La Palmera,0
12.1118285,-86.2086665,node/3704028844,relation/6473483,Terminal 195,0
12.1574349,-86.2970572,node/3216618812,relation/6473225,Los Negros,0
12.1658122,-86.3559583,node/3870060179,relation/6473050,Palí Ciudad Sandino,0
12.1446798,-86.3041743,node/3697682890,relation/6472633,El Seminario,0
12.1230999,-86.1914328,node/286081194,relation/6472296,Bayer,0
12.1406848,-86.251173,node/3704028842,relation/6472826,Pro Mujer,0
12.1524775,-86.2911971,node/3216618813,relation/6472378,Pulpería el Carmen,0
12.1382632,-86.227082,node/2487035819,relation/6473396,Semáforos Villa Progreso,0
12.1322856002,-86.2304690503,relation/6473117,,Paso a desnivel Rubenia,1
12.14936335,-86.2238005,relation/6473116,,Paso a Desnivel Portezuelo,1
12.12877215,-86.2810243,relation/6473114,,Edificios El Centro,1
12.1288320336,-86.2223959331,relation/4263957,,Primero de Mayo,1
12.12673935,-86.20820575,relation/6472428,,Clínica Dental,1
12.14072665,-86.28286095,relation/6472352,,Canal 2,1
12.1526149,-86.2587582,node/2386651216,relation/6472935,Llantera Vargas,0
12.1125763004,-86.2642586502,relation/6472422,,Claro Villa Fontana,1
12.1034451,-86.2627407501,relation/6472423,,Semáforos de Club Terraza,1
12.11260365,-86.21885185,relation/6472357,,Capilla Santa Teresita,1
12.16162075,-86.1882462,relation/6472354,,Cancha Benito Escobar,1
12.1506717,-86.3131717,relation/6472427,,Clínica Bethel Las Brisas,1
12.1395637,-86.1961076,relation/6472515,,Concepción de María,1
12.1233103,-86.1882134,relation/6472511,,Comercial Fernández,1
12.1424284,-86.2229676,node/7856170596,,La Virgen,0
12.0959294,-86.3065425,node/7856170595,,Monumento a Camilo Ortega,0
12.1377326,-86.2501326,node/3697943502,,Bar El Pulpo,0
12.0959517,-86.3064627,node/7856170599,,Monumento a Camilo Ortega,0
12.1738442,-86.36399715,relation/6473603,,Barrio 4 de Abril,1
12.1733825,-86.35837495,relation/6473602,,Zona 11 Sur,1
12.1688432,-86.3651823,node/3876761712,relation/6473461,Terminal 115,0
12.1254659501,-86.25430355,relation/6472227,,Altamira,1
12.1116618,-86.23378805,relation/6472737,,Farmacia Schick,1
12.1381504,-86.3045082,relation/6472222,,Aldea SOS,1
12.1229186,-86.2383712,relation/6472223,,Alesio Blandón,1
12.1039045,-86.22174315,relation/6472732,,Farmacia Ramos,1
12.1350681,-86.2547274,node/2316259694,,El Cristo Rey,0
12.1525214,-86.1891456,node/7660084611,,Trigo Dorado,0
12.1688451,-86.3650696,node/3876761713,relation/6473461,Terminal 115,0
12.16754155,-86.3586856,relation/6473592,,Vuelta de la Uno,1
12.1472067,-86.2438882,node/3243192667,relation/6472243,Auto Servicios Pacheco,0
12.144111,-86.21403705,relation/6473597,,Zona Franca Dasol,1
12.14577005,-86.20941405,relation/6473595,,Waspán Sur,1
12.1127619,-86.2545341,node/2472888535,,El Ministerio,0
12.1556345,-86.3056112,node/3705436590,,Parque Linda Vista,0
12.1489148501,-86.1579958,relation/6473598,,Zona Franca Las Mercedes,1
12.1506278,-86.2459365,node/3243192668,relation/6472328,CECNA,0
12.1505518,-86.2439132,node/3243192669,relation/6472729,Farmacia Potenza,0
12.1198732,-86.2319782,node/3705436591,relation/6473443,Tanque,0
12.1096179,-86.23201205,relation/6472643,,Empalme,1
12.1699949,-86.3589837,relation/6472645,,Enrique Schmidt,1
12.1289919,-86.345551,node/3870181540,relation/6472591,El Cuadro,0
12.10467525,-86.2256705,relation/6472648,,Enrique de Ossó,1
12.1178865,-86.2383558,node/2490583709,relation/6473048,Palí La Fuente,0
