{
    "250": {
      "stop_name": "2nd Ave & Bell St",
      "latitude": "47.6137047",
      "longitude": "-122.345253",
      "region": 979
    },
    "260": {
      "stop_name": "2nd Ave & Lenora St",
      "latitude": "47.6120987",
      "longitude": "-122.342522",
      "region": 1046
    },
    "280": {
      "stop_name": "2nd Ave & Stewart St",
      "latitude": "47.6106148",
      "longitude": "-122.340248",
      "region": 1046
    },
    "300": {
      "stop_name": "2nd Ave & Pike St",
      "latitude": "47.6086464",
      "longitude": "-122.338432",
      "region": 1046
    },
    "320": {
      "stop_name": "2nd Ave & Seneca St",
      "latitude": "47.6062126",
      "longitude": "-122.336205",
      "region": 1045
    },
    "340": {
      "stop_name": "2nd Ave & Marion St",
      "latitude": "47.6044655",
      "longitude": "-122.334625",
      "region": 1045
    },
    "360": {
      "stop_name": "2nd Ave & Cherry St",
      "latitude": "47.6030197",
      "longitude": "-122.333282",
      "region": 1112
    },
    "361": {
      "stop_name": "2nd Ave & James St",
      "latitude": "47.602478",
      "longitude": "-122.332809",
      "region": 1112
    },
    "375": {
      "stop_name": "2nd Ave Ext S & Yesler Way",
      "latitude": "47.6012535",
      "longitude": "-122.331688",
      "region": 1112
    },
    "390": {
      "stop_name": "2nd Ave Ext S & S Jackson St",
      "latitude": "47.5992661",
      "longitude": "-122.329857",
      "region": 1112
    },
    "400": {
      "stop_name": "3rd Ave & Bell St",
      "latitude": "47.6142998",
      "longitude": "-122.344269",
      "region": 1046
    },
    "420": {
      "stop_name": "3rd Ave & Virginia St",
      "latitude": "47.6124382",
      "longitude": "-122.34111",
      "region": 1046
    },
    "430": {
      "stop_name": "3rd Ave & Pine St",
      "latitude": "47.6107903",
      "longitude": "-122.338875",
      "region": 1046
    },
    "431": {
      "stop_name": "3rd Ave & Pike St",
      "latitude": "47.6097908",
      "longitude": "-122.337959",
      "region": 1046
    },
    "433": {
      "stop_name": "3rd Ave & Pike St",
      "latitude": "47.6090698",
      "longitude": "-122.337288",
      "region": 1046
    },
    "450": {
      "stop_name": "3rd Ave & Union St",
      "latitude": "47.6082535",
      "longitude": "-122.336548",
      "region": 1046
    },
    "468": {
      "stop_name": "3rd Ave & Seneca St",
      "latitude": "47.6064415",
      "longitude": "-122.3349",
      "region": 1046
    },
    "480": {
      "stop_name": "3rd Ave & Marion St",
      "latitude": "47.6049957",
      "longitude": "-122.333572",
      "region": 1112
    },
    "481": {
      "stop_name": "3rd Ave & Columbia St",
      "latitude": "47.6042633",
      "longitude": "-122.332901",
      "region": 1112
    },
    "490": {
      "stop_name": "3rd Ave & Cherry St",
      "latitude": "47.6035805",
      "longitude": "-122.332275",
      "region": 1112
    },
    "500": {
      "stop_name": "3rd Ave & James St",
      "latitude": "47.6028175",
      "longitude": "-122.331581",
      "region": 1112
    },
    "510": {
      "stop_name": "S Washington St & 3rd Ave S",
      "latitude": "47.6009483",
      "longitude": "-122.330841",
      "region": 1112
    },
    "515": {
      "stop_name": "3rd Ave S & S Main St",
      "latitude": "47.6002388",
      "longitude": "-122.330376",
      "region": 1112
    },
    "531": {
      "stop_name": "3rd Ave & James St",
      "latitude": "47.6026421",
      "longitude": "-122.331184",
      "region": 1112
    },
    "538": {
      "stop_name": "3rd Ave & Columbia St",
      "latitude": "47.6040955",
      "longitude": "-122.332504",
      "region": 1112
    },
    "539": {
      "stop_name": "3rd Ave & Marion St",
      "latitude": "47.604805",
      "longitude": "-122.33316",
      "region": 1112
    },
    "548": {
      "stop_name": "3rd Ave & Madison St",
      "latitude": "47.6055412",
      "longitude": "-122.333832",
      "region": 1112
    },
    "558": {
      "stop_name": "3rd Ave & Seneca St",
      "latitude": "47.6070518",
      "longitude": "-122.335213",
      "region": 1046
    },
    "570": {
      "stop_name": "3rd Ave & Union St",
      "latitude": "47.6086884",
      "longitude": "-122.3367",
      "region": 1046
    },
    "575": {
      "stop_name": "3rd Ave & Pike St",
      "latitude": "47.609642",
      "longitude": "-122.337585",
      "region": 1046
    },
    "590": {
      "stop_name": "3rd Ave & Pine St",
      "latitude": "47.6111374",
      "longitude": "-122.338951",
      "region": 1046
    },
    "600": {
      "stop_name": "3rd Ave & Virginia St",
      "latitude": "47.6129951",
      "longitude": "-122.341743",
      "region": 1046
    },
    "605": {
      "stop_name": "3rd Ave & Bell St",
      "latitude": "47.6151199",
      "longitude": "-122.345337",
      "region": 979
    },
    "619": {
      "stop_name": "4th Ave S & S Jackson St",
      "latitude": "47.5998268",
      "longitude": "-122.328972",
      "region": 1112
    },
    "620": {
      "stop_name": "4th Ave S & S Jackson St",
      "latitude": "47.5988121",
      "longitude": "-122.328903",
      "region": 1112
    },
    "625": {
      "stop_name": "S Washington St & 4th Ave S",
      "latitude": "47.6008034",
      "longitude": "-122.329048",
      "region": 1112
    },
    "628": {
      "stop_name": "4th Ave S & S Washington St",
      "latitude": "47.6013107",
      "longitude": "-122.328903",
      "region": 1112
    },
    "640": {
      "stop_name": "4th Ave & James St",
      "latitude": "47.6030121",
      "longitude": "-122.329979",
      "region": 1112
    },
    "648": {
      "stop_name": "4th Ave & Cherry St",
      "latitude": "47.6043205",
      "longitude": "-122.331169",
      "region": 1112
    },
    "660": {
      "stop_name": "4th Ave & Madison St",
      "latitude": "47.6060066",
      "longitude": "-122.33271",
      "region": 1112
    },
    "670": {
      "stop_name": "4th Ave & Seneca St",
      "latitude": "47.6074982",
      "longitude": "-122.334076",
      "region": 1113
    },
    "691": {
      "stop_name": "4th Ave & Union St",
      "latitude": "47.6091614",
      "longitude": "-122.335609",
      "region": 1046
    },
    "700": {
      "stop_name": "4th Ave & Pike St",
      "latitude": "47.6109505",
      "longitude": "-122.33725",
      "region": 1046
    },
    "720": {
      "stop_name": "4th Ave & Stewart St",
      "latitude": "47.6126671",
      "longitude": "-122.339203",
      "region": 1046
    },
    "730": {
      "stop_name": "4th Ave & Lenora St",
      "latitude": "47.614151",
      "longitude": "-122.341728",
      "region": 1046
    },
    "760": {
      "stop_name": "5th Ave & Pine St",
      "latitude": "47.6117249",
      "longitude": "-122.336662",
      "region": 1046
    },
    "790": {
      "stop_name": "5th Ave & Seneca St",
      "latitude": "47.6081772",
      "longitude": "-122.333405",
      "region": 1113
    },
    "800": {
      "stop_name": "5th Ave & Spring St",
      "latitude": "47.6069641",
      "longitude": "-122.332291",
      "region": 1113
    },
    "810": {
      "stop_name": "5th Ave & Marion St",
      "latitude": "47.6058311",
      "longitude": "-122.331261",
      "region": 1112
    },
    "820": {
      "stop_name": "5th Ave & Jefferson St",
      "latitude": "47.6030922",
      "longitude": "-122.328766",
      "region": 1112
    },
    "840": {
      "stop_name": "5th Ave S & S Jackson St",
      "latitude": "47.5998802",
      "longitude": "-122.32756",
      "region": 1112
    },
    "844": {
      "stop_name": "5th Ave S & S Weller St",
      "latitude": "47.5977402",
      "longitude": "-122.327782",
      "region": 1112
    },
    "860": {
      "stop_name": "5th Ave & James St",
      "latitude": "47.6035919",
      "longitude": "-122.328972",
      "region": 1112
    },
    "880": {
      "stop_name": "Virginia St & 6th Ave",
      "latitude": "47.614315",
      "longitude": "-122.338287",
      "region": 1046
    },
    "900": {
      "stop_name": "Virginia St & 9th Ave",
      "latitude": "47.6165466",
      "longitude": "-122.335388",
      "region": 1046
    },
    "905": {
      "stop_name": "Stewart St & Yale Ave N",
      "latitude": "47.6190186",
      "longitude": "-122.33017",
      "region": 1114
    },
    "940": {
      "stop_name": "Stewart St & 9th Ave",
      "latitude": "47.6157036",
      "longitude": "-122.334457",
      "region": 1113
    },
    "950": {
      "stop_name": "Stewart St & 7th Ave",
      "latitude": "47.61446",
      "longitude": "-122.336075",
      "region": 1046
    },
    "970": {
      "stop_name": "Stewart St & 4th Ave",
      "latitude": "47.6119919",
      "longitude": "-122.339272",
      "region": 1046
    },
    "992": {
      "stop_name": "Howell St & 9th Ave",
      "latitude": "47.6145401",
      "longitude": "-122.333382",
      "region": 1113
    },
    "996": {
      "stop_name": "5th Ave & Marion St",
      "latitude": "47.605751",
      "longitude": "-122.330948",
      "region": 1112
    },
    "997": {
      "stop_name": "6th Ave & Union St",
      "latitude": "47.6100922",
      "longitude": "-122.333382",
      "region": 1113
    },
    "1000": {
      "stop_name": "Pine St & 9th Ave",
      "latitude": "47.6134148",
      "longitude": "-122.332138",
      "region": 1113
    },
    "1010": {
      "stop_name": "Howell St & Minor Ave",
      "latitude": "47.6167107",
      "longitude": "-122.330597",
      "region": 1114
    },
    "1040": {
      "stop_name": "Olive Way & 6th Ave",
      "latitude": "47.6130257",
      "longitude": "-122.336334",
      "region": 1046
    },
    "1050": {
      "stop_name": "Olive Way & 8th Ave",
      "latitude": "47.6139374",
      "longitude": "-122.33416",
      "region": 1113
    },
    "1051": {
      "stop_name": "Olive Way & Boren Ave",
      "latitude": "47.6156731",
      "longitude": "-122.330032",
      "region": 1113
    },
    "1085": {
      "stop_name": "Pine St & 9th Ave",
      "latitude": "47.6133766",
      "longitude": "-122.332603",
      "region": 1113
    },
    "1110": {
      "stop_name": "Pine St & 5th Ave",
      "latitude": "47.6117668",
      "longitude": "-122.336456",
      "region": 1046
    },
    "1120": {
      "stop_name": "Pine St & 4th Ave",
      "latitude": "47.6111031",
      "longitude": "-122.338028",
      "region": 1046
    },
    "1180": {
      "stop_name": "Pike St & 4th Ave",
      "latitude": "47.6100731",
      "longitude": "-122.336838",
      "region": 1046
    },
    "1190": {
      "stop_name": "Pike St & 6th Ave",
      "latitude": "47.6110344",
      "longitude": "-122.334526",
      "region": 1046
    },
    "1195": {
      "stop_name": "Pike St & 7th Ave",
      "latitude": "47.6118088",
      "longitude": "-122.332687",
      "region": 1113
    },
    "1215": {
      "stop_name": "Union St & 5th Ave",
      "latitude": "47.6098289",
      "longitude": "-122.334511",
      "region": 1046
    },
    "1230": {
      "stop_name": "Union St & 4th Ave",
      "latitude": "47.6090813",
      "longitude": "-122.336288",
      "region": 1046
    },
    "1250": {
      "stop_name": "Seneca St & 4th Ave",
      "latitude": "47.6074219",
      "longitude": "-122.33461",
      "region": 1046
    },
    "1260": {
      "stop_name": "Seneca St & 6th Ave",
      "latitude": "47.6087418",
      "longitude": "-122.331482",
      "region": 1113
    },
    "1270": {
      "stop_name": "Spring St & 4th Ave",
      "latitude": "47.6068764",
      "longitude": "-122.333206",
      "region": 1113
    },
    "1280": {
      "stop_name": "Spring St & 6th Ave",
      "latitude": "47.6078148",
      "longitude": "-122.330948",
      "region": 1113
    },
    "1300": {
      "stop_name": "Madison St & 8th Ave",
      "latitude": "47.6080284",
      "longitude": "-122.328079",
      "region": 1113
    },
    "1340": {
      "stop_name": "Yesler Way & Prefontaine Pl S",
      "latitude": "47.6016464",
      "longitude": "-122.329857",
      "region": 1112
    },
    "1350": {
      "stop_name": "Yesler Way & 6th Ave S",
      "latitude": "47.6016388",
      "longitude": "-122.32505",
      "region": 1112
    },
    "1360": {
      "stop_name": "Yesler Way & 5th Ave",
      "latitude": "47.6017799",
      "longitude": "-122.327141",
      "region": 1112
    },
    "1370": {
      "stop_name": "Yesler Way & 3rd Ave",
      "latitude": "47.6017799",
      "longitude": "-122.329803",
      "region": 1112
    },
    "1400": {
      "stop_name": "Madison St & 5th Ave",
      "latitude": "47.6066818",
      "longitude": "-122.331688",
      "region": 1113
    },
    "1404": {
      "stop_name": "S Washington St & 3rd Ave S",
      "latitude": "47.6008034",
      "longitude": "-122.329758",
      "region": 1112
    },
    "1415": {
      "stop_name": "Madison St & 4th Ave",
      "latitude": "47.6059837",
      "longitude": "-122.333366",
      "region": 1112
    },
    "1420": {
      "stop_name": "Madison St & 2nd Ave",
      "latitude": "47.6053276",
      "longitude": "-122.334923",
      "region": 1045
    },
    "1471": {
      "stop_name": "S Jackson St & 5th Ave S",
      "latitude": "47.5991287",
      "longitude": "-122.328041",
      "region": 1112
    },
    "1480": {
      "stop_name": "S Jackson St & Maynard Ave S",
      "latitude": "47.5991173",
      "longitude": "-122.32457",
      "region": 1112
    },
    "1490": {
      "stop_name": "S Jackson St & 8th Ave S",
      "latitude": "47.5991173",
      "longitude": "-122.322044",
      "region": 1179
    },
    "1500": {
      "stop_name": "S Jackson St & 8th Ave S",
      "latitude": "47.5992661",
      "longitude": "-122.322327",
      "region": 1179
    },
    "1510": {
      "stop_name": "S Jackson St & Maynard Ave S",
      "latitude": "47.5992622",
      "longitude": "-122.32547",
      "region": 1112
    },
    "1530": {
      "stop_name": "S Jackson St & 5th Ave S",
      "latitude": "47.5992661",
      "longitude": "-122.328384",
      "region": 1112
    },
    "1540": {
      "stop_name": "James St & 5th Ave",
      "latitude": "47.6038017",
      "longitude": "-122.329094",
      "region": 1112
    },
    "1551": {
      "stop_name": "S Jackson St & Occidental Ave Walk",
      "latitude": "47.5992737",
      "longitude": "-122.333282",
      "region": 1112
    },
    "1558": {
      "stop_name": "Columbia St & Alaskan Way",
      "latitude": "47.6024704",
      "longitude": "-122.33712",
      "region": 1045
    },
    "1560": {
      "stop_name": "James St & 3rd Ave",
      "latitude": "47.602932",
      "longitude": "-122.330826",
      "region": 1112
    },
    "1561": {
      "stop_name": "Alaskan Way S & S Jackson St",
      "latitude": "47.5996933",
      "longitude": "-122.335815",
      "region": 1045
    },
    "1562": {
      "stop_name": "Alaskan Way S & S Jackson St",
      "latitude": "47.5987091",
      "longitude": "-122.336014",
      "region": 1045
    },
    "1565": {
      "stop_name": "Columbia St & Western Ave",
      "latitude": "47.6026535",
      "longitude": "-122.336288",
      "region": 1045
    },
    "1570": {
      "stop_name": "James St & 5th Ave",
      "latitude": "47.6037712",
      "longitude": "-122.328773",
      "region": 1112
    },
    "1580": {
      "stop_name": "Marion St & 2nd Ave",
      "latitude": "47.6045341",
      "longitude": "-122.334076",
      "region": 1112
    },
    "1590": {
      "stop_name": "Marion St & 4th Ave",
      "latitude": "47.6054611",
      "longitude": "-122.331863",
      "region": 1112
    },
    "1610": {
      "stop_name": "Prefontaine Pl S & Yesler Way",
      "latitude": "47.6016579",
      "longitude": "-122.329941",
      "region": 1112
    },
    "1619": {
      "stop_name": "Westlake Ave & Virginia St",
      "latitude": "47.6148643",
      "longitude": "-122.33786",
      "region": 1046
    },
    "1630": {
      "stop_name": "Westlake Ave & Olive Way",
      "latitude": "47.6132812",
      "longitude": "-122.337547",
      "region": 1046
    },
    "1651": {
      "stop_name": "S Jackson St & 5th Ave S",
      "latitude": "47.5992622",
      "longitude": "-122.327263",
      "region": 1112
    },
    "1652": {
      "stop_name": "S Jackson St & 5th Ave S",
      "latitude": "47.5991249",
      "longitude": "-122.327286",
      "region": 1112
    },
    "1661": {
      "stop_name": "S Jackson St & 8th Ave S",
      "latitude": "47.5992661",
      "longitude": "-122.323341",
      "region": 1179
    },
    "1662": {
      "stop_name": "S Jackson St & 8th Ave S",
      "latitude": "47.5991249",
      "longitude": "-122.323395",
      "region": 1179
    },
    "1671": {
      "stop_name": "S Jackson St & 12th Ave S",
      "latitude": "47.5992737",
      "longitude": "-122.315536",
      "region": 1179
    },
    "1672": {
      "stop_name": "S Jackson St & 12th Ave S",
      "latitude": "47.5991402",
      "longitude": "-122.315529",
      "region": 1179
    },
    "1681": {
      "stop_name": "14th Ave S & S Washington St",
      "latitude": "47.6005745",
      "longitude": "-122.31424",
      "region": 1179
    },
    "1682": {
      "stop_name": "14th Ave S & S Washington St",
      "latitude": "47.6005936",
      "longitude": "-122.314041",
      "region": 1179
    },
    "1690": {
      "stop_name": "3rd Ave & Vine St",
      "latitude": "47.6169586",
      "longitude": "-122.34845",
      "region": 980
    },
    "1710": {
      "stop_name": "Terrace St & 5th Ave",
      "latitude": "47.602047",
      "longitude": "-122.328255",
      "region": 1112
    },
    "1889": {
      "stop_name": "Vashon Island Water Taxi & Colman Dock",
      "latitude": "47.601223",
      "longitude": "-122.338928",
      "region": 1045
    },
    "1890": {
      "stop_name": "Marion St & 1st Ave",
      "latitude": "47.6041451",
      "longitude": "-122.335022",
      "region": 1045
    },
    "1907": {
      "stop_name": "West Seattle Water Taxi & Colman Dock",
      "latitude": "47.6011467",
      "longitude": "-122.338737",
      "region": 1045
    },
    "1920": {
      "stop_name": "Lenora St & 4th Ave",
      "latitude": "47.6139717",
      "longitude": "-122.341293",
      "region": 1046
    },
    "2010": {
      "stop_name": "10th Ave W & W Armour St",
      "latitude": "47.6451111",
      "longitude": "-122.370277",
      "region": 848
    },
    "2020": {
      "stop_name": "10th Ave W & W Bothwell St",
      "latitude": "47.643486",
      "longitude": "-122.370308",
      "region": 848
    },
    "2030": {
      "stop_name": "10th Ave W & W Halladay St",
      "latitude": "47.6417923",
      "longitude": "-122.370171",
      "region": 848
    },
    "2050": {
      "stop_name": "10th Ave W & W Mcgraw St",
      "latitude": "47.6394577",
      "longitude": "-122.370399",
      "region": 848
    },
    "2060": {
      "stop_name": "10th Ave W & W Crockett St",
      "latitude": "47.6375847",
      "longitude": "-122.370438",
      "region": 848
    },
    "2070": {
      "stop_name": "10th Ave W & W Howe St",
      "latitude": "47.6357689",
      "longitude": "-122.370468",
      "region": 847
    },
    "2080": {
      "stop_name": "10th Ave W & W Blaine St",
      "latitude": "47.6345634",
      "longitude": "-122.370483",
      "region": 847
    },
    "2090": {
      "stop_name": "10th Ave W & W Galer St",
      "latitude": "47.6323662",
      "longitude": "-122.370506",
      "region": 847
    },
    "2100": {
      "stop_name": "Olympic Way W & W Lee St",
      "latitude": "47.6310806",
      "longitude": "-122.370155",
      "region": 847
    },
    "2110": {
      "stop_name": "Olympic Way W & 9th Ave W",
      "latitude": "47.6295013",
      "longitude": "-122.368637",
      "region": 847
    },
    "2120": {
      "stop_name": "Olympic Way W & 7th Ave W",
      "latitude": "47.6275978",
      "longitude": "-122.366112",
      "region": 914
    },
    "2130": {
      "stop_name": "Olympic Way W & 5th Ave W",
      "latitude": "47.6266708",
      "longitude": "-122.363335",
      "region": 913
    },
    "2140": {
      "stop_name": "W Olympic Pl & 3rd Ave W",
      "latitude": "47.6266556",
      "longitude": "-122.360306",
      "region": 913
    },
    "2150": {
      "stop_name": "W Roy St & 2nd Ave W",
      "latitude": "47.6256561",
      "longitude": "-122.358765",
      "region": 913
    },
    "2180": {
      "stop_name": "Queen Anne Ave N & W Harrison St",
      "latitude": "47.6218338",
      "longitude": "-122.356819",
      "region": 913
    },
    "2200": {
      "stop_name": "Queen Anne Ave N & W John St",
      "latitude": "47.6192131",
      "longitude": "-122.35685",
      "region": 913
    },
    "2201": {
      "stop_name": "S Lewis St & Sumac Dr",
      "latitude": "47.8487167",
      "longitude": "-121.970749",
      "region": 3347
    },
    "2202": {
      "stop_name": "N Kelsey St & Galaxy Way",
      "latitude": "47.8645172",
      "longitude": "-121.975014",
      "region": 3349
    },
    "2203": {
      "stop_name": "Us Hwy 2 & Sr 522 Ramp",
      "latitude": "47.8610916",
      "longitude": "-121.977966",
      "region": 3349
    },
    "2204": {
      "stop_name": "Freylands Blvd & Tye St SE",
      "latitude": "47.8710632",
      "longitude": "-122.009109",
      "region": -1
    },
    "2205": {
      "stop_name": "Village Way & Sky River Pkwy",
      "latitude": "47.8489342",
      "longitude": "-121.984032",
      "region": 3280
    },
    "2206": {
      "stop_name": "S Lewis St & Powell St",
      "latitude": "47.8499641",
      "longitude": "-121.970932",
      "region": 3347
    },
    "2220": {
      "stop_name": "3rd Ave & Cedar St",
      "latitude": "47.6167755",
      "longitude": "-122.34845",
      "region": 980
    },
    "2244": {
      "stop_name": "Denny Way & 2nd Ave N",
      "latitude": "47.618515",
      "longitude": "-122.351944",
      "region": 980
    },
    "2245": {
      "stop_name": "Denny Way & 5th Ave N",
      "latitude": "47.6185036",
      "longitude": "-122.347878",
      "region": 980
    },
    "2247": {
      "stop_name": "Denny Way & 6th Ave",
      "latitude": "47.6184959",
      "longitude": "-122.345131",
      "region": 1047
    },
    "2250": {
      "stop_name": "Denny Way & Dexter Ave",
      "latitude": "47.6184807",
      "longitude": "-122.342545",
      "region": 1047
    },
    "2255": {
      "stop_name": "Denny Way & Westlake Ave",
      "latitude": "47.6184692",
      "longitude": "-122.338219",
      "region": 1047
    },
    "2260": {
      "stop_name": "Denny Way & Fairview Ave",
      "latitude": "47.6184616",
      "longitude": "-122.334572",
      "region": 1047
    },
    "2262": {
      "stop_name": "Denny Way & Stewart St",
      "latitude": "47.6184273",
      "longitude": "-122.330925",
      "region": 1114
    },
    "2275": {
      "stop_name": "E Denny Way & Bellevue Ave E",
      "latitude": "47.6185646",
      "longitude": "-122.326553",
      "region": 1114
    },
    "2285": {
      "stop_name": "Denny Way & Fairview Ave N",
      "latitude": "47.6186028",
      "longitude": "-122.334213",
      "region": 1114
    },
    "2291": {
      "stop_name": "Denny Way & Westlake Ave",
      "latitude": "47.6186066",
      "longitude": "-122.33902",
      "region": 1047
    },
    "2295": {
      "stop_name": "Denny Way & Dexter Ave N",
      "latitude": "47.6186142",
      "longitude": "-122.342163",
      "region": 1047
    },
    "2297": {
      "stop_name": "Denny Way & 6th Ave N",
      "latitude": "47.6186295",
      "longitude": "-122.345291",
      "region": 980
    },
    "2300": {
      "stop_name": "Denny Way & 5th Ave N",
      "latitude": "47.6186409",
      "longitude": "-122.347847",
      "region": 980
    },
    "2320": {
      "stop_name": "1st Ave & Broad St",
      "latitude": "47.6172066",
      "longitude": "-122.352859",
      "region": 980
    },
    "2330": {
      "stop_name": "1st Ave N & Denny Way",
      "latitude": "47.6191177",
      "longitude": "-122.355362",
      "region": 980
    },
    "2360": {
      "stop_name": "1st Ave N & Republican St",
      "latitude": "47.6231232",
      "longitude": "-122.355309",
      "region": 980
    },
    "2361": {
      "stop_name": "Republican St & 1st Ave N",
      "latitude": "47.6231995",
      "longitude": "-122.355537",
      "region": 980
    },
    "2370": {
      "stop_name": "Mercer St & Queen Anne Ave N",
      "latitude": "47.624649",
      "longitude": "-122.356552",
      "region": 913
    },
    "2390": {
      "stop_name": "2nd Ave W & W Roy St",
      "latitude": "47.6258965",
      "longitude": "-122.359215",
      "region": 913
    },
    "2400": {
      "stop_name": "W Olympic Pl & 3rd Ave W",
      "latitude": "47.6267929",
      "longitude": "-122.360535",
      "region": 914
    },
    "2410": {
      "stop_name": "W Olympic Pl & 5th Ave W",
      "latitude": "47.6267967",
      "longitude": "-122.363159",
      "region": 914
    },
    "2420": {
      "stop_name": "Olympic Way W & 7th Ave W",
      "latitude": "47.6278458",
      "longitude": "-122.366371",
      "region": 914
    },
    "2430": {
      "stop_name": "Olympic Way W & W Prospect St",
      "latitude": "47.6290665",
      "longitude": "-122.367966",
      "region": 847
    },
    "2440": {
      "stop_name": "Olympic Way W & W Lee St",
      "latitude": "47.631279",
      "longitude": "-122.37011",
      "region": 847
    },
    "2450": {
      "stop_name": "10th Ave W & W Galer St",
      "latitude": "47.6325035",
      "longitude": "-122.370308",
      "region": 847
    },
    "2460": {
      "stop_name": "10th Ave W & W Blaine St",
      "latitude": "47.6349564",
      "longitude": "-122.370262",
      "region": 847
    },
    "2470": {
      "stop_name": "10th Ave W & W Howe St",
      "latitude": "47.636158",
      "longitude": "-122.370247",
      "region": 847
    },
    "2480": {
      "stop_name": "10th Ave W & W Crockett St",
      "latitude": "47.6379738",
      "longitude": "-122.370224",
      "region": 848
    },
    "2490": {
      "stop_name": "10th Ave W & W Mcgraw St",
      "latitude": "47.6397667",
      "longitude": "-122.370087",
      "region": 848
    },
    "2500": {
      "stop_name": "10th Ave W & W Halladay St",
      "latitude": "47.6421928",
      "longitude": "-122.369965",
      "region": 848
    },
    "2510": {
      "stop_name": "10th Ave W & W Newell St",
      "latitude": "47.644455",
      "longitude": "-122.370087",
      "region": 848
    },
    "2520": {
      "stop_name": "9th Ave W & W Armour St",
      "latitude": "47.6453171",
      "longitude": "-122.369278",
      "region": 848
    },
    "2550": {
      "stop_name": "7th Ave W & W Pleasant Pl",
      "latitude": "47.6426506",
      "longitude": "-122.366356",
      "region": 915
    },
    "2570": {
      "stop_name": "W Mcgraw St & 6th Ave W",
      "latitude": "47.6395149",
      "longitude": "-122.365318",
      "region": 915
    },
    "2580": {
      "stop_name": "6th Ave W & W Crockett St",
      "latitude": "47.6375656",
      "longitude": "-122.365089",
      "region": 915
    },
    "2590": {
      "stop_name": "6th Ave W & W Howe St",
      "latitude": "47.6360245",
      "longitude": "-122.365097",
      "region": 914
    },
    "2600": {
      "stop_name": "6th Ave W & W Blaine St",
      "latitude": "47.6345253",
      "longitude": "-122.365128",
      "region": 914
    },
    "2610": {
      "stop_name": "6th Ave W & W Galer St",
      "latitude": "47.6324577",
      "longitude": "-122.365158",
      "region": 914
    },
    "2620": {
      "stop_name": "W Galer St & 5th Ave W",
      "latitude": "47.6322632",
      "longitude": "-122.362793",
      "region": 914
    },
    "2630": {
      "stop_name": "W Galer St & 2nd Ave W",
      "latitude": "47.6322441",
      "longitude": "-122.358505",
      "region": 914
    },
    "2640": {
      "stop_name": "Queen Anne Ave N & W Galer St",
      "latitude": "47.6318359",
      "longitude": "-122.356697",
      "region": 914
    },
    "2660": {
      "stop_name": "Queen Anne Ave N & W Highland Dr",
      "latitude": "47.629612",
      "longitude": "-122.356728",
      "region": 914
    },
    "2670": {
      "stop_name": "Queen Anne Ave N & W Prospect St",
      "latitude": "47.6285133",
      "longitude": "-122.356781",
      "region": 914
    },
    "2672": {
      "stop_name": "Queen Anne Ave N & W Mercer St",
      "latitude": "47.6240616",
      "longitude": "-122.356812",
      "region": 913
    },
    "2680": {
      "stop_name": "Queen Anne Ave N & W Aloha St",
      "latitude": "47.626545",
      "longitude": "-122.356796",
      "region": 913
    },
    "2690": {
      "stop_name": "1st Ave N & Mercer St",
      "latitude": "47.6247368",
      "longitude": "-122.355309",
      "region": 980
    },
    "2710": {
      "stop_name": "Queen Anne Ave N & Aloha St",
      "latitude": "47.6271095",
      "longitude": "-122.35659",
      "region": 914
    },
    "2720": {
      "stop_name": "Queen Anne Ave N & Ward St",
      "latitude": "47.6283188",
      "longitude": "-122.356575",
      "region": 914
    },
    "2730": {
      "stop_name": "Queen Anne Ave N & Highland Dr",
      "latitude": "47.6297913",
      "longitude": "-122.356522",
      "region": 914
    },
    "2740": {
      "stop_name": "Queen Anne Ave N & W Lee St",
      "latitude": "47.6314926",
      "longitude": "-122.356491",
      "region": 914
    },
    "2760": {
      "stop_name": "W Galer St & 1st Ave W",
      "latitude": "47.6323891",
      "longitude": "-122.358627",
      "region": 914
    },
    "2770": {
      "stop_name": "W Galer St & 3rd Ave W",
      "latitude": "47.6323929",
      "longitude": "-122.36129",
      "region": 914
    },
    "2780": {
      "stop_name": "W Galer St & 5th Ave W",
      "latitude": "47.6323929",
      "longitude": "-122.364037",
      "region": 914
    },
    "2790": {
      "stop_name": "6th Ave W & W Garfield St",
      "latitude": "47.6337013",
      "longitude": "-122.364937",
      "region": 914
    },
    "2800": {
      "stop_name": "6th Ave W & W Howe St",
      "latitude": "47.6361618",
      "longitude": "-122.364899",
      "region": 914
    },
    "2810": {
      "stop_name": "6th Ave W & W Crockett St",
      "latitude": "47.63797",
      "longitude": "-122.364868",
      "region": 915
    },
    "2820": {
      "stop_name": "6th Ave W & W Mcgraw St",
      "latitude": "47.6398392",
      "longitude": "-122.364838",
      "region": 915
    },
    "2830": {
      "stop_name": "6th Ave W & W Smith St",
      "latitude": "47.6416321",
      "longitude": "-122.364815",
      "region": 915
    },
    "2840": {
      "stop_name": "6th Ave W & W Raye St",
      "latitude": "47.6430016",
      "longitude": "-122.364799",
      "region": 915
    },
    "2850": {
      "stop_name": "Madrona Park & Lake Washington Blvd",
      "latitude": "47.6121902",
      "longitude": "-122.2817",
      "region": 1381
    },
    "2860": {
      "stop_name": "Madrona Dr & Newport Way",
      "latitude": "47.6135712",
      "longitude": "-122.282578",
      "region": 1381
    },
    "2870": {
      "stop_name": "Madrona Dr & E Pine St",
      "latitude": "47.6152115",
      "longitude": "-122.283791",
      "region": 1381
    },
    "2880": {
      "stop_name": "Madrona Dr & E Olive St",
      "latitude": "47.616684",
      "longitude": "-122.284492",
      "region": 1382
    },
    "2890": {
      "stop_name": "Madrona Dr & Madrona Pl E",
      "latitude": "47.6183472",
      "longitude": "-122.285255",
      "region": 1382
    },
    "2900": {
      "stop_name": "E Denny Way & E Florence Ct",
      "latitude": "47.6183548",
      "longitude": "-122.288628",
      "region": 1382
    },
    "2910": {
      "stop_name": "34th Ave & E Howell St",
      "latitude": "47.6173935",
      "longitude": "-122.289284",
      "region": 1382
    },
    "2911": {
      "stop_name": "34th Ave & E Olive St",
      "latitude": "47.6163025",
      "longitude": "-122.289314",
      "region": 1381
    },
    "2920": {
      "stop_name": "34th Ave & E Pine St",
      "latitude": "47.6149864",
      "longitude": "-122.289337",
      "region": 1381
    },
    "2930": {
      "stop_name": "34th Ave & E Union St",
      "latitude": "47.6130142",
      "longitude": "-122.289406",
      "region": 1381
    },
    "2940": {
      "stop_name": "E Union St & 33rd Ave",
      "latitude": "47.6129723",
      "longitude": "-122.290802",
      "region": 1381
    },
    "2950": {
      "stop_name": "E Union St & 31st Ave",
      "latitude": "47.6130066",
      "longitude": "-122.292915",
      "region": 1314
    },
    "2960": {
      "stop_name": "E Union St & 29th Ave",
      "latitude": "47.6130295",
      "longitude": "-122.295296",
      "region": 1314
    },
    "2970": {
      "stop_name": "E Union St & 27th Ave",
      "latitude": "47.6130066",
      "longitude": "-122.297836",
      "region": 1314
    },
    "2980": {
      "stop_name": "E Union St & 25th Ave",
      "latitude": "47.6130066",
      "longitude": "-122.300461",
      "region": 1314
    },
    "2995": {
      "stop_name": "E Union St & 23rd Ave",
      "latitude": "47.6130066",
      "longitude": "-122.303001",
      "region": 1247
    },
    "3000": {
      "stop_name": "E Union St & 20th Ave",
      "latitude": "47.6129799",
      "longitude": "-122.306168",
      "region": 1247
    },
    "3010": {
      "stop_name": "E Union St & 18th Ave",
      "latitude": "47.6129723",
      "longitude": "-122.309349",
      "region": 1247
    },
    "3030": {
      "stop_name": "E Union St & 14th Ave",
      "latitude": "47.6129723",
      "longitude": "-122.314423",
      "region": 1180
    },
    "3032": {
      "stop_name": "E Union St & Broadway",
      "latitude": "47.6130295",
      "longitude": "-122.320595",
      "region": 1180
    },
    "3033": {
      "stop_name": "Seneca St & Harvard Ave",
      "latitude": "47.6126022",
      "longitude": "-122.322319",
      "region": 1180
    },
    "3034": {
      "stop_name": "Seneca St & Summit Ave",
      "latitude": "47.6116295",
      "longitude": "-122.32457",
      "region": 1113
    },
    "3035": {
      "stop_name": "Seneca St & Boren Ave",
      "latitude": "47.6109276",
      "longitude": "-122.326233",
      "region": 1113
    },
    "3036": {
      "stop_name": "Seneca St & Terry Ave",
      "latitude": "47.6102257",
      "longitude": "-122.327904",
      "region": 1113
    },
    "3037": {
      "stop_name": "Seneca St & 8th Ave",
      "latitude": "47.6092796",
      "longitude": "-122.33017",
      "region": 1113
    },
    "3150": {
      "stop_name": "Seneca St & 8th Ave",
      "latitude": "47.6092529",
      "longitude": "-122.329842",
      "region": 1113
    },
    "3151": {
      "stop_name": "Seneca St & 9th Ave",
      "latitude": "47.60989",
      "longitude": "-122.328316",
      "region": 1113
    },
    "3152": {
      "stop_name": "Seneca St & Boren Ave",
      "latitude": "47.6108093",
      "longitude": "-122.326126",
      "region": 1113
    },
    "3153": {
      "stop_name": "Seneca St & Summit Ave",
      "latitude": "47.611763",
      "longitude": "-122.323883",
      "region": 1113
    },
    "3154": {
      "stop_name": "Seneca St & Boylston Ave",
      "latitude": "47.6122208",
      "longitude": "-122.322777",
      "region": 1180
    },
    "3155": {
      "stop_name": "E Union St & Broadway",
      "latitude": "47.6128845",
      "longitude": "-122.320389",
      "region": 1180
    },
    "3156": {
      "stop_name": "E Madison St & 12th Ave",
      "latitude": "47.6124802",
      "longitude": "-122.317429",
      "region": 1180
    },
    "3160": {
      "stop_name": "E Union St & 13th Ave",
      "latitude": "47.6128387",
      "longitude": "-122.315636",
      "region": 1180
    },
    "3190": {
      "stop_name": "E Union St & 18th Ave",
      "latitude": "47.6128387",
      "longitude": "-122.309021",
      "region": 1247
    },
    "3200": {
      "stop_name": "E Union St & 20th Ave",
      "latitude": "47.6128387",
      "longitude": "-122.306412",
      "region": 1247
    },
    "3209": {
      "stop_name": "E Union St & 22nd Ave",
      "latitude": "47.6128616",
      "longitude": "-122.303764",
      "region": 1247
    },
    "3220": {
      "stop_name": "E Union St & 26th Ave",
      "latitude": "47.6128616",
      "longitude": "-122.298477",
      "region": 1314
    },
    "3230": {
      "stop_name": "E Union St & Martin L King Jr Way",
      "latitude": "47.612896",
      "longitude": "-122.295654",
      "region": 1314
    },
    "3240": {
      "stop_name": "E Union St & 30th Ave",
      "latitude": "47.6128807",
      "longitude": "-122.293755",
      "region": 1314
    },
    "3250": {
      "stop_name": "E Union St & 32nd Ave",
      "latitude": "47.6128387",
      "longitude": "-122.291183",
      "region": 1381
    },
    "3271": {
      "stop_name": "34th Ave & E Olive St",
      "latitude": "47.6166916",
      "longitude": "-122.289093",
      "region": 1382
    },
    "3280": {
      "stop_name": "34th Ave & E Howell St",
      "latitude": "47.6175575",
      "longitude": "-122.289078",
      "region": 1382
    },
    "3293": {
      "stop_name": "34th Ave & E Pike St",
      "latitude": "47.6144218",
      "longitude": "-122.289162",
      "region": 1381
    },
    "3300": {
      "stop_name": "Madrona Dr & 38th Ave",
      "latitude": "47.6181641",
      "longitude": "-122.285149",
      "region": 1382
    },
    "3310": {
      "stop_name": "Madrona Dr & E Olive St",
      "latitude": "47.6165276",
      "longitude": "-122.284698",
      "region": 1381
    },
    "3320": {
      "stop_name": "Madrona Dr & E Pine St",
      "latitude": "47.6150093",
      "longitude": "-122.283859",
      "region": 1381
    },
    "3330": {
      "stop_name": "Madrona Dr & Newport Way",
      "latitude": "47.6134796",
      "longitude": "-122.28273",
      "region": 1381
    },
    "3380": {
      "stop_name": "Beacon Ave S & S Columbian Way",
      "latitude": "47.5592232",
      "longitude": "-122.304161",
      "region": 1242
    },
    "3400": {
      "stop_name": "Beacon Ave S & Veterans Administration Hospital",
      "latitude": "47.5637321",
      "longitude": "-122.305565",
      "region": 1242
    },
    "3410": {
      "stop_name": "Beacon Ave S & Jefferson Golf Course",
      "latitude": "47.5673218",
      "longitude": "-122.306671",
      "region": 1243
    },
    "3420": {
      "stop_name": "Beacon Ave S & Jefferson Community Center",
      "latitude": "47.569809",
      "longitude": "-122.307449",
      "region": 1243
    },
    "3430": {
      "stop_name": "Beacon Ave S & S Spokane St",
      "latitude": "47.5724297",
      "longitude": "-122.308304",
      "region": 1243
    },
    "3450": {
      "stop_name": "Beacon Ave S & S Hanford St",
      "latitude": "47.5753593",
      "longitude": "-122.309204",
      "region": 1243
    },
    "3460": {
      "stop_name": "Beacon Ave S & S Stevens St",
      "latitude": "47.5774956",
      "longitude": "-122.310432",
      "region": 1244
    },
    "3470": {
      "stop_name": "Beacon Ave S & S Lander St",
      "latitude": "47.579319",
      "longitude": "-122.312126",
      "region": 1244
    },
    "3484": {
      "stop_name": "Beacon Ave S & 15th Ave S",
      "latitude": "47.5809555",
      "longitude": "-122.313629",
      "region": 1177
    },
    "3500": {
      "stop_name": "14th Ave S & S Hill St",
      "latitude": "47.5845032",
      "longitude": "-122.314583",
      "region": 1177
    },
    "3515": {
      "stop_name": "14th Ave S & S Holgate St",
      "latitude": "47.5866051",
      "longitude": "-122.314568",
      "region": 1178
    },
    "3530": {
      "stop_name": "S Massachusetts St & 14th Ave S",
      "latitude": "47.5885086",
      "longitude": "-122.315208",
      "region": 1178
    },
    "3541": {
      "stop_name": "12th Ave S & S Massachusetts St",
      "latitude": "47.5887604",
      "longitude": "-122.317177",
      "region": 1178
    },
    "3550": {
      "stop_name": "12th Ave S & S Atlantic St",
      "latitude": "47.5902481",
      "longitude": "-122.317177",
      "region": 1178
    },
    "3570": {
      "stop_name": "12th Ave S & S Judkins St",
      "latitude": "47.5927162",
      "longitude": "-122.317177",
      "region": 1178
    },
    "3580": {
      "stop_name": "S Charles St & Golf Dr S",
      "latitude": "47.5941429",
      "longitude": "-122.316727",
      "region": 1178
    },
    "3589": {
      "stop_name": "12th Ave S & S Weller St",
      "latitude": "47.5973778",
      "longitude": "-122.317123",
      "region": 1179
    },
    "3600": {
      "stop_name": "S Jackson St & 12th Ave S",
      "latitude": "47.5992699",
      "longitude": "-122.317757",
      "region": 1179
    },
    "3700": {
      "stop_name": "12th Ave S & S Jackson St",
      "latitude": "47.5986519",
      "longitude": "-122.317329",
      "region": 1179
    },
    "3710": {
      "stop_name": "12th Ave S & S Weller St",
      "latitude": "47.5973053",
      "longitude": "-122.317329",
      "region": 1179
    },
    "3730": {
      "stop_name": "Golf Dr S & 14th Ave S",
      "latitude": "47.5929909",
      "longitude": "-122.31501",
      "region": 1178
    },
    "3740": {
      "stop_name": "14th Ave S & S Judkins St",
      "latitude": "47.5911865",
      "longitude": "-122.314949",
      "region": 1178
    },
    "3760": {
      "stop_name": "14th Ave S & S Massachusetts St",
      "latitude": "47.5881844",
      "longitude": "-122.314964",
      "region": 1178
    },
    "3770": {
      "stop_name": "14th Ave S & S Holgate St",
      "latitude": "47.5861359",
      "longitude": "-122.314774",
      "region": 1178
    },
    "3778": {
      "stop_name": "14th Ave S & S Hill St",
      "latitude": "47.5843391",
      "longitude": "-122.314789",
      "region": 1177
    },
    "3800": {
      "stop_name": "Beacon Ave S & S Bayview St",
      "latitude": "47.5812912",
      "longitude": "-122.314186",
      "region": 1177
    },
    "3810": {
      "stop_name": "Beacon Ave S & S Lander St",
      "latitude": "47.5792542",
      "longitude": "-122.312302",
      "region": 1244
    },
    "3820": {
      "stop_name": "Beacon Ave S & S Stevens St",
      "latitude": "47.5771141",
      "longitude": "-122.310318",
      "region": 1244
    },
    "3830": {
      "stop_name": "Beacon Ave S & S Hanford St",
      "latitude": "47.5751915",
      "longitude": "-122.309349",
      "region": 1243
    },
    "3860": {
      "stop_name": "Beacon Ave S & S Spokane St",
      "latitude": "47.5715675",
      "longitude": "-122.308243",
      "region": 1243
    },
    "3870": {
      "stop_name": "Beacon Ave S & Jefferson Community Center",
      "latitude": "47.5694923",
      "longitude": "-122.307564",
      "region": 1243
    },
    "3880": {
      "stop_name": "Beacon Ave S & Jefferson Golf Course",
      "latitude": "47.5668449",
      "longitude": "-122.30674",
      "region": 1243
    },
    "3881": {
      "stop_name": "Beacon Ave S & Veterans Administration Hospital",
      "latitude": "47.5633316",
      "longitude": "-122.305634",
      "region": 1242
    },
    "3883": {
      "stop_name": "Beacon Ave S & S Columbian Way",
      "latitude": "47.5592728",
      "longitude": "-122.304665",
      "region": 1242
    },
    "3910": {
      "stop_name": "W Mcgraw St & 2nd Ave W",
      "latitude": "47.6395187",
      "longitude": "-122.359222",
      "region": 915
    },
    "3920": {
      "stop_name": "Queen Anne Ave N & W Mcgraw St",
      "latitude": "47.6393204",
      "longitude": "-122.35701",
      "region": 915
    },
    "3930": {
      "stop_name": "Boston St & Queen Anne Ave N",
      "latitude": "47.6383247",
      "longitude": "-122.356552",
      "region": 915
    },
    "3940": {
      "stop_name": "Boston St & Warren Ave N",
      "latitude": "47.638195",
      "longitude": "-122.3545",
      "region": 982
    },
    "3950": {
      "stop_name": "Boston St & Nob Hill Ave N",
      "latitude": "47.6381874",
      "longitude": "-122.350853",
      "region": 982
    },
    "3960": {
      "stop_name": "Boston St & Bigelow Ave N",
      "latitude": "47.6381874",
      "longitude": "-122.348404",
      "region": 982
    },
    "3980": {
      "stop_name": "5th Ave N & Newton St",
      "latitude": "47.6363068",
      "longitude": "-122.347229",
      "region": 981
    },
    "3990": {
      "stop_name": "Taylor Ave N & Blaine St",
      "latitude": "47.6346092",
      "longitude": "-122.347519",
      "region": 981
    },
    "4000": {
      "stop_name": "Taylor Ave N & Garfield St",
      "latitude": "47.6331444",
      "longitude": "-122.346054",
      "region": 981
    },
    "4010": {
      "stop_name": "Taylor Ave N & Lee St",
      "latitude": "47.6310921",
      "longitude": "-122.346375",
      "region": 981
    },
    "4020": {
      "stop_name": "Taylor Ave N & Prospect St",
      "latitude": "47.6289711",
      "longitude": "-122.346344",
      "region": 981
    },
    "4040": {
      "stop_name": "5th Ave N & Valley St",
      "latitude": "47.6259346",
      "longitude": "-122.347656",
      "region": 980
    },
    "4050": {
      "stop_name": "5th Ave N & Republican St",
      "latitude": "47.6236115",
      "longitude": "-122.347672",
      "region": 980
    },
    "4070": {
      "stop_name": "5th Ave N & Broad St",
      "latitude": "47.6212883",
      "longitude": "-122.34771",
      "region": 980
    },
    "4080": {
      "stop_name": "5th Ave N & Denny Way",
      "latitude": "47.6192131",
      "longitude": "-122.347725",
      "region": 980
    },
    "4200": {
      "stop_name": "Cedar St & Denny Way",
      "latitude": "47.6185303",
      "longitude": "-122.347519",
      "region": 980
    },
    "4220": {
      "stop_name": "5th Ave N & Broad St",
      "latitude": "47.6213036",
      "longitude": "-122.347504",
      "region": 980
    },
    "4230": {
      "stop_name": "5th Ave N & Republican St",
      "latitude": "47.6235886",
      "longitude": "-122.347466",
      "region": 980
    },
    "4245": {
      "stop_name": "Valley St & Taylor Ave N",
      "latitude": "47.6261978",
      "longitude": "-122.346382",
      "region": 980
    },
    "4265": {
      "stop_name": "Taylor Ave N & Prospect St",
      "latitude": "47.6291275",
      "longitude": "-122.346138",
      "region": 981
    },
    "4280": {
      "stop_name": "Taylor Ave N & Lee St",
      "latitude": "47.6313553",
      "longitude": "-122.346184",
      "region": 981
    },
    "4290": {
      "stop_name": "Taylor Ave N & Galer St",
      "latitude": "47.6325073",
      "longitude": "-122.345863",
      "region": 981
    },
    "4300": {
      "stop_name": "Taylor Ave N & 5th Ave N",
      "latitude": "47.6342125",
      "longitude": "-122.34626",
      "region": 981
    },
    "4325": {
      "stop_name": "5th Ave N & Newton St",
      "latitude": "47.6367645",
      "longitude": "-122.347015",
      "region": 981
    },
    "4340": {
      "stop_name": "Boston St & 4th Ave N",
      "latitude": "47.6383247",
      "longitude": "-122.349785",
      "region": 982
    },
    "4355": {
      "stop_name": "Boston St & 2nd Ave N",
      "latitude": "47.6383286",
      "longitude": "-122.353424",
      "region": 982
    },
    "4370": {
      "stop_name": "Boston St & 1st Ave N",
      "latitude": "47.6384544",
      "longitude": "-122.356247",
      "region": 915
    },
    "4465": {
      "stop_name": "Queen Anne Ave N & Garfield St",
      "latitude": "47.6338272",
      "longitude": "-122.356873",
      "region": 914
    },
    "4489": {
      "stop_name": "Queen Anne Ave N & W Howe St",
      "latitude": "47.6357346",
      "longitude": "-122.356865",
      "region": 914
    },
    "4500": {
      "stop_name": "Queen Anne Ave N & W Crockett St",
      "latitude": "47.636879",
      "longitude": "-122.357056",
      "region": 914
    },
    "5330": {
      "stop_name": "N 85th St & Greenwood Ave N",
      "latitude": "47.6905289",
      "longitude": "-122.354935",
      "region": 987
    },
    "5350": {
      "stop_name": "N 85th St & Fremont Ave N",
      "latitude": "47.690506",
      "longitude": "-122.349609",
      "region": 987
    },
    "5370": {
      "stop_name": "N 85th St & Aurora Ave N",
      "latitude": "47.6904907",
      "longitude": "-122.344734",
      "region": 1054
    },
    "5380": {
      "stop_name": "N 85th St & Stone Ave N",
      "latitude": "47.6904716",
      "longitude": "-122.341507",
      "region": 1054
    },
    "5400": {
      "stop_name": "N 85th St & Wallingford Ave N",
      "latitude": "47.6904449",
      "longitude": "-122.336601",
      "region": 1054
    },
    "5402": {
      "stop_name": "NE 42nd St & 8th Ave NE",
      "latitude": "47.657589",
      "longitude": "-122.320366",
      "region": 1185
    },
    "5417": {
      "stop_name": "7th Ave NE & NE 42nd St",
      "latitude": "47.6580734",
      "longitude": "-122.320747",
      "region": 1185
    },
    "5419": {
      "stop_name": "I-5 & NE 45th St",
      "latitude": "47.6616135",
      "longitude": "-122.320801",
      "region": 1185
    },
    "5420": {
      "stop_name": "N 85th St & Wallingford Ave N",
      "latitude": "47.6905785",
      "longitude": "-122.336769",
      "region": 1054
    },
    "5440": {
      "stop_name": "N 85th St & Stone Ave N",
      "latitude": "47.690609",
      "longitude": "-122.341194",
      "region": 1054
    },
    "5450": {
      "stop_name": "N 85th St & Aurora Ave N",
      "latitude": "47.6906242",
      "longitude": "-122.344162",
      "region": 1054
    },
    "5470": {
      "stop_name": "N 85th St & Fremont Ave N",
      "latitude": "47.6906471",
      "longitude": "-122.350266",
      "region": 987
    },
    "5486": {
      "stop_name": "Greenwood Ave N & N Greenwood Dr",
      "latitude": "47.7471123",
      "longitude": "-122.355576",
      "region": 992
    },
    "5487": {
      "stop_name": "Carlyle Hall Rd N & Dayton Ave N",
      "latitude": "47.7487526",
      "longitude": "-122.353638",
      "region": 992
    },
    "5488": {
      "stop_name": "Carlyle Hall Rd N & Dayton Ave N",
      "latitude": "47.7500114",
      "longitude": "-122.355179",
      "region": 993
    },
    "5489": {
      "stop_name": "Greenwood Ave N & N Greenwood Dr",
      "latitude": "47.7467041",
      "longitude": "-122.355782",
      "region": 992
    },
    "5492": {
      "stop_name": "Shoreline Community College",
      "latitude": "47.7469978",
      "longitude": "-122.357857",
      "region": 925
    },
    "5493": {
      "stop_name": "Shoreline Community College",
      "latitude": "47.7471504",
      "longitude": "-122.35865",
      "region": 925
    },
    "5502": {
      "stop_name": "N Innis Arden Way & Greenwood Ave N",
      "latitude": "47.7452812",
      "longitude": "-122.356026",
      "region": 925
    },
    "5550": {
      "stop_name": "Greenwood Ave N & N 145th St",
      "latitude": "47.7337799",
      "longitude": "-122.355675",
      "region": 991
    },
    "5560": {
      "stop_name": "Greenwood Ave N & N 143rd St",
      "latitude": "47.7320366",
      "longitude": "-122.355659",
      "region": 991
    },
    "5580": {
      "stop_name": "Greenwood Ave N & N 137th St",
      "latitude": "47.728447",
      "longitude": "-122.355644",
      "region": 990
    },
    "5590": {
      "stop_name": "Greenwood Ave N & N 134th St",
      "latitude": "47.7264252",
      "longitude": "-122.355659",
      "region": 990
    },
    "5610": {
      "stop_name": "Greenwood Ave N & N 130th St",
      "latitude": "47.7229576",
      "longitude": "-122.355659",
      "region": 990
    },
    "5630": {
      "stop_name": "Greenwood Ave N & N 125th St",
      "latitude": "47.719677",
      "longitude": "-122.355644",
      "region": 990
    },
    "5640": {
      "stop_name": "Greenwood Ave N & N 122nd St",
      "latitude": "47.7173233",
      "longitude": "-122.355637",
      "region": 989
    },
    "5660": {
      "stop_name": "Greenwood Ave N & N 117th St",
      "latitude": "47.7137604",
      "longitude": "-122.355621",
      "region": 989
    },
    "5670": {
      "stop_name": "Greenwood Ave N & N 115th St",
      "latitude": "47.7121162",
      "longitude": "-122.355606",
      "region": 989
    },
    "5690": {
      "stop_name": "Greenwood Ave N & N 110th St",
      "latitude": "47.7084351",
      "longitude": "-122.355576",
      "region": 989
    },
    "5710": {
      "stop_name": "Greenwood Ave N & Holman Rd N",
      "latitude": "47.7045212",
      "longitude": "-122.355537",
      "region": 988
    },
    "5730": {
      "stop_name": "Greenwood Ave N & N 100th St",
      "latitude": "47.7011604",
      "longitude": "-122.355507",
      "region": 988
    },
    "5740": {
      "stop_name": "Greenwood Ave N & N 97th St",
      "latitude": "47.6993752",
      "longitude": "-122.355499",
      "region": 988
    },
    "5765": {
      "stop_name": "Greenwood Ave N & N 92nd St",
      "latitude": "47.6958084",
      "longitude": "-122.355469",
      "region": 987
    },
    "5770": {
      "stop_name": "Greenwood Ave N & N 90th St",
      "latitude": "47.6942673",
      "longitude": "-122.355438",
      "region": 987
    },
    "5771": {
      "stop_name": "Greenwood Ave N & N 87th St",
      "latitude": "47.6925507",
      "longitude": "-122.355431",
      "region": 987
    },
    "5790": {
      "stop_name": "Greenwood Ave N & N 85th St",
      "latitude": "47.6903305",
      "longitude": "-122.3554",
      "region": 987
    },
    "5810": {
      "stop_name": "Greenwood Ave N & N 80th St",
      "latitude": "47.6867065",
      "longitude": "-122.3554",
      "region": 986
    },
    "5820": {
      "stop_name": "Greenwood Ave N & N 78th St",
      "latitude": "47.6851807",
      "longitude": "-122.3554",
      "region": 986
    },
    "5830": {
      "stop_name": "Greenwood Ave N & N 76th St",
      "latitude": "47.6837616",
      "longitude": "-122.3554",
      "region": 986
    },
    "5840": {
      "stop_name": "Greenwood Ave N & N 74th St",
      "latitude": "47.6823006",
      "longitude": "-122.3554",
      "region": 986
    },
    "5860": {
      "stop_name": "Greenwood Ave N & N 70th St",
      "latitude": "47.6793098",
      "longitude": "-122.355415",
      "region": 986
    },
    "5875": {
      "stop_name": "Phinney Ave N & N 67th St",
      "latitude": "47.6780128",
      "longitude": "-122.355377",
      "region": 986
    },
    "5880": {
      "stop_name": "Phinney Ave N & N 65th St",
      "latitude": "47.6756935",
      "longitude": "-122.354462",
      "region": 985
    },
    "5900": {
      "stop_name": "Phinney Ave N & N 61st St",
      "latitude": "47.6727791",
      "longitude": "-122.354485",
      "region": 985
    },
    "5910": {
      "stop_name": "Phinney Ave N & N 59th St",
      "latitude": "47.6715622",
      "longitude": "-122.354485",
      "region": 985
    },
    "5930": {
      "stop_name": "Phinney Ave N & N 55th St",
      "latitude": "47.6684837",
      "longitude": "-122.354515",
      "region": 985
    },
    "5940": {
      "stop_name": "Phinney Ave N & N 54th St",
      "latitude": "47.6675034",
      "longitude": "-122.35453",
      "region": 985
    },
    "5960": {
      "stop_name": "Phinney Ave N & N 50th St",
      "latitude": "47.6646996",
      "longitude": "-122.354065",
      "region": 984
    },
    "5980": {
      "stop_name": "Phinney Ave N & N 46th St",
      "latitude": "47.661869",
      "longitude": "-122.354088",
      "region": 984
    },
    "6000": {
      "stop_name": "N 43rd St & Phinney Ave N",
      "latitude": "47.6588936",
      "longitude": "-122.353943",
      "region": 984
    },
    "6020": {
      "stop_name": "N 43rd St & Fremont Ave N",
      "latitude": "47.6588821",
      "longitude": "-122.350266",
      "region": 984
    },
    "6030": {
      "stop_name": "Fremont Ave N & N 41st St",
      "latitude": "47.6564255",
      "longitude": "-122.350044",
      "region": 983
    },
    "6040": {
      "stop_name": "Fremont Ave N & N 39th St",
      "latitude": "47.6550369",
      "longitude": "-122.350021",
      "region": 983
    },
    "6050": {
      "stop_name": "Aurora Ave N & N 38th St",
      "latitude": "47.6519356",
      "longitude": "-122.347809",
      "region": 983
    },
    "6060": {
      "stop_name": "Aurora Ave N & Halladay St",
      "latitude": "47.642086",
      "longitude": "-122.347069",
      "region": 982
    },
    "6070": {
      "stop_name": "Aurora Ave N & Lynn St",
      "latitude": "47.6389084",
      "longitude": "-122.345596",
      "region": 982
    },
    "6071": {
      "stop_name": "Seacrest Marina & Harbor Ave SW",
      "latitude": "47.589325",
      "longitude": "-122.380608",
      "region": 776
    },
    "6080": {
      "stop_name": "Aurora Ave N & Crockett St",
      "latitude": "47.6367531",
      "longitude": "-122.344116",
      "region": 1048
    },
    "6100": {
      "stop_name": "Aurora Ave N & Galer St",
      "latitude": "47.6321678",
      "longitude": "-122.343666",
      "region": 1048
    },
    "6120": {
      "stop_name": "Aurora Ave N & Prospect St",
      "latitude": "47.6287308",
      "longitude": "-122.343697",
      "region": 1048
    },
    "6176": {
      "stop_name": "7th Ave N & Thomas St",
      "latitude": "47.6210556",
      "longitude": "-122.343842",
      "region": 1047
    },
    "6190": {
      "stop_name": "7th Ave & Blanchard St",
      "latitude": "47.6163635",
      "longitude": "-122.339813",
      "region": 1046
    },
    "6220": {
      "stop_name": "7th Ave & Blanchard St",
      "latitude": "47.6168785",
      "longitude": "-122.340385",
      "region": 1047
    },
    "6236": {
      "stop_name": "7th Ave N & Denny Way",
      "latitude": "47.6190987",
      "longitude": "-122.343575",
      "region": 1047
    },
    "6237": {
      "stop_name": "7th Ave N & Harrison St",
      "latitude": "47.6218948",
      "longitude": "-122.343506",
      "region": 1047
    },
    "6240": {
      "stop_name": "Dexter Ave N & Denny Way",
      "latitude": "47.6189423",
      "longitude": "-122.3423",
      "region": 1047
    },
    "6290": {
      "stop_name": "Aurora Ave N & Prospect St",
      "latitude": "47.6292381",
      "longitude": "-122.343353",
      "region": 1048
    },
    "6300": {
      "stop_name": "Aurora Ave N & Galer St",
      "latitude": "47.6325722",
      "longitude": "-122.343323",
      "region": 1048
    },
    "6310": {
      "stop_name": "Aurora Ave N & Crockett St",
      "latitude": "47.6374054",
      "longitude": "-122.344185",
      "region": 1049
    },
    "6320": {
      "stop_name": "Aurora Ave N & Lynn St",
      "latitude": "47.6388741",
      "longitude": "-122.3452",
      "region": 1049
    },
    "6330": {
      "stop_name": "Aurora Ave N & Halladay St",
      "latitude": "47.6419754",
      "longitude": "-122.346672",
      "region": 982
    },
    "6340": {
      "stop_name": "Aurora Ave N & N 38th St",
      "latitude": "47.6524734",
      "longitude": "-122.346619",
      "region": 983
    },
    "6360": {
      "stop_name": "Fremont Ave N & N 39th St",
      "latitude": "47.6543999",
      "longitude": "-122.349815",
      "region": 983
    },
    "6380": {
      "stop_name": "Fremont Ave N & N 41st St",
      "latitude": "47.6569023",
      "longitude": "-122.349854",
      "region": 983
    },
    "6400": {
      "stop_name": "N 43rd St & Fremont Ave N",
      "latitude": "47.6590233",
      "longitude": "-122.350403",
      "region": 984
    },
    "6420": {
      "stop_name": "Phinney Ave N & N 43rd St",
      "latitude": "47.6592865",
      "longitude": "-122.354279",
      "region": 984
    },
    "6440": {
      "stop_name": "Phinney Ave N & N 46th St",
      "latitude": "47.6624184",
      "longitude": "-122.353882",
      "region": 984
    },
    "6460": {
      "stop_name": "Phinney Ave N & N 50th St",
      "latitude": "47.664959",
      "longitude": "-122.353874",
      "region": 984
    },
    "6480": {
      "stop_name": "Phinney Ave N & N 53rd St",
      "latitude": "47.6668968",
      "longitude": "-122.354324",
      "region": 984
    },
    "6490": {
      "stop_name": "Phinney Ave N & N 55th St",
      "latitude": "47.6683502",
      "longitude": "-122.354309",
      "region": 985
    },
    "6510": {
      "stop_name": "Phinney Ave N & N 58th St",
      "latitude": "47.6709595",
      "longitude": "-122.354294",
      "region": 985
    },
    "6520": {
      "stop_name": "Phinney Ave N & N 60th St",
      "latitude": "47.6727638",
      "longitude": "-122.354279",
      "region": 985
    },
    "6540": {
      "stop_name": "Phinney Ave N & N 64th St",
      "latitude": "47.6756401",
      "longitude": "-122.354256",
      "region": 985
    },
    "6550": {
      "stop_name": "Phinney Ave N & N 67th St",
      "latitude": "47.6772804",
      "longitude": "-122.354256",
      "region": 985
    },
    "6565": {
      "stop_name": "Greenwood Ave N & N 68th St",
      "latitude": "47.678936",
      "longitude": "-122.355209",
      "region": 986
    },
    "6580": {
      "stop_name": "Greenwood Ave N & N 72nd St",
      "latitude": "47.6813812",
      "longitude": "-122.355209",
      "region": 986
    },
    "6590": {
      "stop_name": "Greenwood Ave N & N 75th St",
      "latitude": "47.6835365",
      "longitude": "-122.355194",
      "region": 986
    },
    "6600": {
      "stop_name": "Greenwood Ave N & N 77th St",
      "latitude": "47.6850548",
      "longitude": "-122.355194",
      "region": 986
    },
    "6615": {
      "stop_name": "Greenwood Ave N & N 80th St",
      "latitude": "47.6873322",
      "longitude": "-122.355194",
      "region": 986
    },
    "6640": {
      "stop_name": "Greenwood Ave N & N 85th St",
      "latitude": "47.6909676",
      "longitude": "-122.355209",
      "region": 987
    },
    "6660": {
      "stop_name": "Greenwood Ave N & N 90th St",
      "latitude": "47.6944656",
      "longitude": "-122.355247",
      "region": 987
    },
    "6670": {
      "stop_name": "Greenwood Ave N & N 92nd St",
      "latitude": "47.6962891",
      "longitude": "-122.355278",
      "region": 987
    },
    "6685": {
      "stop_name": "Greenwood Ave N & N 97th St",
      "latitude": "47.7000084",
      "longitude": "-122.355309",
      "region": 988
    },
    "6693": {
      "stop_name": "Greenwood Ave N & N 100th St",
      "latitude": "47.7017365",
      "longitude": "-122.355316",
      "region": 988
    },
    "6710": {
      "stop_name": "Greenwood Ave N & N 103rd St",
      "latitude": "47.7038841",
      "longitude": "-122.355347",
      "region": 988
    },
    "6730": {
      "stop_name": "Greenwood Ave N & N 107th St",
      "latitude": "47.7071762",
      "longitude": "-122.355347",
      "region": 988
    },
    "6740": {
      "stop_name": "Greenwood Ave N & N 110th St",
      "latitude": "47.7090721",
      "longitude": "-122.355347",
      "region": 989
    },
    "6750": {
      "stop_name": "Greenwood Ave N & N 112th St",
      "latitude": "47.7107773",
      "longitude": "-122.3554",
      "region": 989
    },
    "6770": {
      "stop_name": "Greenwood Ave N & N 117th St",
      "latitude": "47.7143822",
      "longitude": "-122.355415",
      "region": 989
    },
    "6790": {
      "stop_name": "Greenwood Ave N & N 122nd St",
      "latitude": "47.7180443",
      "longitude": "-122.355431",
      "region": 989
    },
    "6800": {
      "stop_name": "Greenwood Ave N & N 125th St",
      "latitude": "47.7199478",
      "longitude": "-122.355438",
      "region": 990
    },
    "6820": {
      "stop_name": "Greenwood Ave N & N 130th St",
      "latitude": "47.723671",
      "longitude": "-122.355453",
      "region": 990
    },
    "6840": {
      "stop_name": "Greenwood Ave N & N 134th St",
      "latitude": "47.7266502",
      "longitude": "-122.355438",
      "region": 990
    },
    "6850": {
      "stop_name": "Greenwood Ave N & N 137th St",
      "latitude": "47.7289734",
      "longitude": "-122.355453",
      "region": 991
    },
    "6870": {
      "stop_name": "Greenwood Ave N & N 143rd St",
      "latitude": "47.7321358",
      "longitude": "-122.355453",
      "region": 991
    },
    "6880": {
      "stop_name": "Greenwood Ave N & N 145th St",
      "latitude": "47.7335243",
      "longitude": "-122.355469",
      "region": 991
    },
    "6940": {
      "stop_name": "N Innis Arden Way & Greenwood Ave N",
      "latitude": "47.7460976",
      "longitude": "-122.357193",
      "region": 925
    },
    "6950": {
      "stop_name": "Aurora Ave N & N 145th St",
      "latitude": "47.7335701",
      "longitude": "-122.345268",
      "region": 991
    },
    "6990": {
      "stop_name": "Aurora Ave N & N 135th St",
      "latitude": "47.726429",
      "longitude": "-122.3451",
      "region": 1057
    },
    "7000": {
      "stop_name": "Aurora Ave N & N 130th St",
      "latitude": "47.7229614",
      "longitude": "-122.345078",
      "region": 1057
    },
    "7010": {
      "stop_name": "Aurora Ave N & N 125th St",
      "latitude": "47.719902",
      "longitude": "-122.345047",
      "region": 1057
    },
    "7040": {
      "stop_name": "Aurora Ave N & N 115th St",
      "latitude": "47.7119751",
      "longitude": "-122.34491",
      "region": 1056
    },
    "7080": {
      "stop_name": "Aurora Ave N & N 105th St",
      "latitude": "47.7046356",
      "longitude": "-122.344856",
      "region": 1055
    },
    "7100": {
      "stop_name": "Aurora Ave N & N 100th St",
      "latitude": "47.701088",
      "longitude": "-122.34481",
      "region": 1055
    },
    "7120": {
      "stop_name": "Aurora Ave N & N 95th St",
      "latitude": "47.6974945",
      "longitude": "-122.344704",
      "region": 1054
    },
    "7140": {
      "stop_name": "Aurora Ave N & N 90th St",
      "latitude": "47.6939621",
      "longitude": "-122.344734",
      "region": 1054
    },
    "7160": {
      "stop_name": "Aurora Ave N & N 85th St",
      "latitude": "47.6898766",
      "longitude": "-122.344681",
      "region": 1054
    },
    "7180": {
      "stop_name": "Aurora Ave N & N 80th St",
      "latitude": "47.6866722",
      "longitude": "-122.344666",
      "region": 1053
    },
    "7200": {
      "stop_name": "Aurora Ave N & N 76th St",
      "latitude": "47.6841507",
      "longitude": "-122.34465",
      "region": 1053
    },
    "7210": {
      "stop_name": "Aurora Ave N & N 65th St",
      "latitude": "47.6760826",
      "longitude": "-122.346947",
      "region": 985
    },
    "7350": {
      "stop_name": "Stone Way N & N 45th St",
      "latitude": "47.6612206",
      "longitude": "-122.342262",
      "region": 1051
    },
    "7360": {
      "stop_name": "Stone Way N & N 43rd St",
      "latitude": "47.6589622",
      "longitude": "-122.342369",
      "region": 1051
    },
    "7380": {
      "stop_name": "Stone Way N & N 40th St",
      "latitude": "47.6551437",
      "longitude": "-122.34256",
      "region": 1050
    },
    "7382": {
      "stop_name": "Stone Way N & N 38th St",
      "latitude": "47.6528664",
      "longitude": "-122.342667",
      "region": 1050
    },
    "7430": {
      "stop_name": "Wall St & 5th Ave",
      "latitude": "47.6175041",
      "longitude": "-122.345268",
      "region": 980
    },
    "7498": {
      "stop_name": "Stone Way N & N 38th St",
      "latitude": "47.6529388",
      "longitude": "-122.342468",
      "region": 1050
    },
    "7500": {
      "stop_name": "Stone Way N & N 40th St",
      "latitude": "47.655159",
      "longitude": "-122.342354",
      "region": 1050
    },
    "7520": {
      "stop_name": "Stone Way N & N 42nd St",
      "latitude": "47.6582642",
      "longitude": "-122.342209",
      "region": 1051
    },
    "7530": {
      "stop_name": "Stone Way N & N Allen Pl",
      "latitude": "47.6605759",
      "longitude": "-122.342079",
      "region": 1051
    },
    "7630": {
      "stop_name": "Woodland Pl N & N 65th St",
      "latitude": "47.6761627",
      "longitude": "-122.347031",
      "region": 985
    },
    "7670": {
      "stop_name": "Linden Ave N & N 72nd St",
      "latitude": "47.6812248",
      "longitude": "-122.346809",
      "region": 986
    },
    "7690": {
      "stop_name": "Aurora Ave N & N 76th St",
      "latitude": "47.6837234",
      "longitude": "-122.344322",
      "region": 1053
    },
    "7710": {
      "stop_name": "Aurora Ave N & N 80th St",
      "latitude": "47.68713",
      "longitude": "-122.344337",
      "region": 1053
    },
    "7730": {
      "stop_name": "Aurora Ave N & N 85th St",
      "latitude": "47.691082",
      "longitude": "-122.34436",
      "region": 1054
    },
    "7750": {
      "stop_name": "Aurora Ave N & N 91st St",
      "latitude": "47.6946907",
      "longitude": "-122.344406",
      "region": 1054
    },
    "7770": {
      "stop_name": "Aurora Ave N & N 95th St",
      "latitude": "47.6981506",
      "longitude": "-122.344513",
      "region": 1055
    },
    "7790": {
      "stop_name": "Aurora Ave N & N 100th St",
      "latitude": "47.7016754",
      "longitude": "-122.34449",
      "region": 1055
    },
    "7810": {
      "stop_name": "Aurora Ave N & N Northgate Way",
      "latitude": "47.7053528",
      "longitude": "-122.344543",
      "region": 1055
    },
    "7850": {
      "stop_name": "Aurora Ave N & N 115th St",
      "latitude": "47.7127342",
      "longitude": "-122.344719",
      "region": 1056
    },
    "7880": {
      "stop_name": "Aurora Ave N & N 125th St",
      "latitude": "47.7194672",
      "longitude": "-122.344841",
      "region": 1057
    },
    "7900": {
      "stop_name": "Aurora Ave N & N 130th St",
      "latitude": "47.7237396",
      "longitude": "-122.344879",
      "region": 1057
    },
    "7912": {
      "stop_name": "Aurora Ave N & N 135th St",
      "latitude": "47.7272987",
      "longitude": "-122.344925",
      "region": 1057
    },
    "7950": {
      "stop_name": "62nd Ave S & S Prentice St",
      "latitude": "47.5083122",
      "longitude": "-122.256004",
      "region": 1572
    },
    "7960": {
      "stop_name": "S Prentice St & 64th Ave S",
      "latitude": "47.5081215",
      "longitude": "-122.253754",
      "region": 1572
    },
    "7970": {
      "stop_name": "64th Ave S & S Ryan St",
      "latitude": "47.5096588",
      "longitude": "-122.253441",
      "region": 1572
    },
    "7980": {
      "stop_name": "64th Ave S & S Cooper St",
      "latitude": "47.5116005",
      "longitude": "-122.253426",
      "region": 1572
    },
    "8000": {
      "stop_name": "Waters Ave S & S Norfolk St",
      "latitude": "47.5136909",
      "longitude": "-122.254097",
      "region": 1572
    },
    "8010": {
      "stop_name": "Waters Ave S & S Pilgrim St",
      "latitude": "47.5156059",
      "longitude": "-122.25666",
      "region": 1573
    },
    "8030": {
      "stop_name": "Waters Ave S & S Carver St",
      "latitude": "47.5181046",
      "longitude": "-122.259903",
      "region": 1506
    },
    "8040": {
      "stop_name": "57th Ave S & Waters Ave S",
      "latitude": "47.5195274",
      "longitude": "-122.261482",
      "region": 1506
    },
    "8050": {
      "stop_name": "Rainier Ave S & Seward Park Ave S",
      "latitude": "47.5200996",
      "longitude": "-122.263481",
      "region": 1506
    },
    "8070": {
      "stop_name": "Rainier Ave S & 52nd Ave S",
      "latitude": "47.5199165",
      "longitude": "-122.267807",
      "region": 1506
    },
    "8080": {
      "stop_name": "Rainier Ave S & S Fisher Pl",
      "latitude": "47.521328",
      "longitude": "-122.269897",
      "region": 1506
    },
    "8090": {
      "stop_name": "Rainier Ave S & S Henderson St",
      "latitude": "47.5228729",
      "longitude": "-122.26989",
      "region": 1506
    },
    "8100": {
      "stop_name": "Rainier Ave S & Cloverdale Pl S",
      "latitude": "47.5259705",
      "longitude": "-122.26989",
      "region": 1507
    },
    "8110": {
      "stop_name": "Rainier Ave S & S Rose St",
      "latitude": "47.5293808",
      "longitude": "-122.269897",
      "region": 1507
    },
    "8140": {
      "stop_name": "Rainier Ave S & S Holden St",
      "latitude": "47.5339088",
      "longitude": "-122.26989",
      "region": 1507
    },
    "8160": {
      "stop_name": "Rainier Ave S & S Othello St",
      "latitude": "47.5373726",
      "longitude": "-122.270271",
      "region": 1441
    },
    "8175": {
      "stop_name": "Rainier Ave S & S Frontenac St",
      "latitude": "47.5400429",
      "longitude": "-122.270996",
      "region": 1441
    },
    "8190": {
      "stop_name": "Rainier Ave S & S Holly St",
      "latitude": "47.5427284",
      "longitude": "-122.272881",
      "region": 1441
    },
    "8210": {
      "stop_name": "Rainier Ave S & S Graham St",
      "latitude": "47.5459175",
      "longitude": "-122.275703",
      "region": 1442
    },
    "8231": {
      "stop_name": "Rainier Ave S & S Kenny St",
      "latitude": "47.5492249",
      "longitude": "-122.276947",
      "region": 1442
    },
    "8250": {
      "stop_name": "Rainier Ave S & S Orcas St",
      "latitude": "47.5514755",
      "longitude": "-122.277718",
      "region": 1442
    },
    "8270": {
      "stop_name": "Rainier Ave S & S Brandon St",
      "latitude": "47.5535469",
      "longitude": "-122.279793",
      "region": 1442
    },
    "8285": {
      "stop_name": "Rainier Ave S & 39th Ave S",
      "latitude": "47.5561714",
      "longitude": "-122.283653",
      "region": 1376
    },
    "8300": {
      "stop_name": "Rainier Ave S & S Edmunds St",
      "latitude": "47.5589104",
      "longitude": "-122.285484",
      "region": 1376
    },
    "8310": {
      "stop_name": "Rainier Ave S & S Alaska St",
      "latitude": "47.5610237",
      "longitude": "-122.287125",
      "region": 1376
    },
    "8330": {
      "stop_name": "Rainier Ave S & S Genesee St",
      "latitude": "47.5645103",
      "longitude": "-122.288193",
      "region": 1376
    },
    "8350": {
      "stop_name": "Rainier Ave S & S Andover St",
      "latitude": "47.5685463",
      "longitude": "-122.289574",
      "region": 1377
    },
    "8360": {
      "stop_name": "Rainier Ave S & 33rd Ave S",
      "latitude": "47.5701485",
      "longitude": "-122.291336",
      "region": 1377
    },
    "8380": {
      "stop_name": "Rainier Ave S & S Walden St",
      "latitude": "47.5728989",
      "longitude": "-122.293892",
      "region": 1310
    },
    "8400": {
      "stop_name": "Rainier Ave S & S Mount Baker Blvd",
      "latitude": "47.5758095",
      "longitude": "-122.296089",
      "region": 1310
    },
    "8401": {
      "stop_name": "Rainier Ave S & Mount Baker Transit Center - Bay 1",
      "latitude": "47.577507",
      "longitude": "-122.297401",
      "region": 1311
    },
    "8402": {
      "stop_name": "Mount Baker Transit Center - Bay 2",
      "latitude": "47.5775909",
      "longitude": "-122.297127",
      "region": 1311
    },
    "8403": {
      "stop_name": "Mount Baker Transit Center - Bay 3",
      "latitude": "47.5776825",
      "longitude": "-122.297165",
      "region": 1311
    },
    "8429": {
      "stop_name": "Rainier Ave S & S Bayview St",
      "latitude": "47.5811958",
      "longitude": "-122.300201",
      "region": 1311
    },
    "8440": {
      "stop_name": "Rainier Ave S & S Walker St",
      "latitude": "47.583931",
      "longitude": "-122.302299",
      "region": 1244
    },
    "8450": {
      "stop_name": "Rainier Ave S & S Plum St",
      "latitude": "47.585743",
      "longitude": "-122.30368",
      "region": 1244
    },
    "8460": {
      "stop_name": "Rainier Ave S & S Grand St",
      "latitude": "47.5871124",
      "longitude": "-122.30471",
      "region": 1245
    },
    "8485": {
      "stop_name": "Rainier Ave S & I-90",
      "latitude": "47.5894661",
      "longitude": "-122.306526",
      "region": 1245
    },
    "8494": {
      "stop_name": "Rainier Ave S & S Charles St",
      "latitude": "47.5944443",
      "longitude": "-122.310318",
      "region": 1245
    },
    "8510": {
      "stop_name": "Rainier Ave S & S Dearborn St",
      "latitude": "47.5961304",
      "longitude": "-122.311607",
      "region": 1245
    },
    "8530": {
      "stop_name": "S Jackson St & Boren Ave S",
      "latitude": "47.5992737",
      "longitude": "-122.315155",
      "region": 1179
    },
    "8541": {
      "stop_name": "S Jackson St & 12th Ave S",
      "latitude": "47.5991287",
      "longitude": "-122.317642",
      "region": 1179
    },
    "8550": {
      "stop_name": "Rainier Ave S & S King St",
      "latitude": "47.5984726",
      "longitude": "-122.313629",
      "region": 1179
    },
    "8590": {
      "stop_name": "Rainier Ave S & S Charles St",
      "latitude": "47.5937271",
      "longitude": "-122.309998",
      "region": 1245
    },
    "8608": {
      "stop_name": "Rainier Ave S & I-90",
      "latitude": "47.5890274",
      "longitude": "-122.306412",
      "region": 1245
    },
    "8620": {
      "stop_name": "Rainier Ave S & S State St",
      "latitude": "47.5875244",
      "longitude": "-122.305252",
      "region": 1245
    },
    "8641": {
      "stop_name": "Rainier Ave S & S Walker St",
      "latitude": "47.5837326",
      "longitude": "-122.302368",
      "region": 1244
    },
    "8660": {
      "stop_name": "Rainier Ave S & S Bayview St",
      "latitude": "47.5807915",
      "longitude": "-122.300133",
      "region": 1311
    },
    "8672": {
      "stop_name": "Martin L King Jr Way S & S Bayview St",
      "latitude": "47.5815468",
      "longitude": "-122.297058",
      "region": 1311
    },
    "8681": {
      "stop_name": "Rainier Ave S & S Forest St - Bay 4",
      "latitude": "47.576828",
      "longitude": "-122.297112",
      "region": 1311
    },
    "8690": {
      "stop_name": "Rainier Ave S & Martin Luther King Junior Way S",
      "latitude": "47.5757294",
      "longitude": "-122.296249",
      "region": 1310
    },
    "8710": {
      "stop_name": "Rainier Ave S & S Walden St",
      "latitude": "47.5726891",
      "longitude": "-122.293945",
      "region": 1310
    },
    "8730": {
      "stop_name": "Rainier Ave S & Letitia Ave S",
      "latitude": "47.5699501",
      "longitude": "-122.291237",
      "region": 1377
    },
    "8740": {
      "stop_name": "Rainier Ave S & S Andover St",
      "latitude": "47.5680389",
      "longitude": "-122.289421",
      "region": 1377
    },
    "8760": {
      "stop_name": "Rainier Ave S & S Genesee St",
      "latitude": "47.5639381",
      "longitude": "-122.288246",
      "region": 1376
    },
    "8780": {
      "stop_name": "Rainier Ave S & S Alaska St",
      "latitude": "47.5605469",
      "longitude": "-122.28698",
      "region": 1376
    },
    "8790": {
      "stop_name": "Rainier Ave S & S Edmunds St",
      "latitude": "47.5586967",
      "longitude": "-122.285583",
      "region": 1376
    },
    "8810": {
      "stop_name": "Rainier Ave S & S Dawson St",
      "latitude": "47.5553284",
      "longitude": "-122.282974",
      "region": 1375
    },
    "8820": {
      "stop_name": "Rainier Ave S & S Brandon St",
      "latitude": "47.5534325",
      "longitude": "-122.279884",
      "region": 1442
    },
    "8840": {
      "stop_name": "Rainier Ave S & S Orcas St",
      "latitude": "47.5509262",
      "longitude": "-122.277634",
      "region": 1442
    },
    "8850": {
      "stop_name": "Rainier Ave S & S Kenny St",
      "latitude": "47.5486946",
      "longitude": "-122.277061",
      "region": 1442
    },
    "8870": {
      "stop_name": "Rainier Ave S & S Graham St",
      "latitude": "47.5456696",
      "longitude": "-122.275665",
      "region": 1442
    },
    "8890": {
      "stop_name": "Rainier Ave S & S Holly St",
      "latitude": "47.5422211",
      "longitude": "-122.272743",
      "region": 1441
    },
    "8905": {
      "stop_name": "Rainier Ave S & S Frontenac St",
      "latitude": "47.5393143",
      "longitude": "-122.270927",
      "region": 1441
    },
    "8920": {
      "stop_name": "Rainier Ave S & S Othello St",
      "latitude": "47.5366249",
      "longitude": "-122.270294",
      "region": 1441
    },
    "8940": {
      "stop_name": "Rainier Ave S & S Holden St",
      "latitude": "47.5333481",
      "longitude": "-122.270088",
      "region": 1440
    },
    "8970": {
      "stop_name": "Rainier Ave S & S Rose St",
      "latitude": "47.5294037",
      "longitude": "-122.270103",
      "region": 1440
    },
    "8990": {
      "stop_name": "Rainier Ave S & S Cloverdale St",
      "latitude": "47.5259247",
      "longitude": "-122.270088",
      "region": 1440
    },
    "9000": {
      "stop_name": "Rainier Ave S & S Henderson St",
      "latitude": "47.5229797",
      "longitude": "-122.270088",
      "region": 1439
    },
    "9010": {
      "stop_name": "Rainier Ave S & 51st Ave S",
      "latitude": "47.5204582",
      "longitude": "-122.270065",
      "region": 1439
    },
    "9030": {
      "stop_name": "Rainier Ave S & 54th Ave S",
      "latitude": "47.5198135",
      "longitude": "-122.264709",
      "region": 1506
    },
    "9050": {
      "stop_name": "Waters Ave S & S Fletcher St",
      "latitude": "47.519062",
      "longitude": "-122.261421",
      "region": 1506
    },
    "9060": {
      "stop_name": "Waters Ave S & S Carver St",
      "latitude": "47.517746",
      "longitude": "-122.259682",
      "region": 1506
    },
    "9080": {
      "stop_name": "Waters Ave S & 61st Ave S",
      "latitude": "47.5157661",
      "longitude": "-122.257126",
      "region": 1573
    },
    "9090": {
      "stop_name": "Waters Ave S & 62nd Ave S",
      "latitude": "47.5147896",
      "longitude": "-122.255966",
      "region": 1572
    },
    "9110": {
      "stop_name": "62nd Ave S & S Cooper St",
      "latitude": "47.5114174",
      "longitude": "-122.255981",
      "region": 1572
    },
    "9132": {
      "stop_name": "University Way NE & NE 50th St",
      "latitude": "47.664135",
      "longitude": "-122.313187",
      "region": 1185
    },
    "9133": {
      "stop_name": "University Way NE & NE 45th St",
      "latitude": "47.662281",
      "longitude": "-122.313217",
      "region": 1185
    },
    "9134": {
      "stop_name": "U District Station - Bay 4",
      "latitude": "47.6600723",
      "longitude": "-122.313255",
      "region": 1185
    },
    "9135": {
      "stop_name": "University Way NE & NE 52nd St",
      "latitude": "47.6660233",
      "longitude": "-122.313164",
      "region": 1185
    },
    "9138": {
      "stop_name": "NE Campus Pkwy & 12th Ave NE - Bay 4",
      "latitude": "47.6562996",
      "longitude": "-122.315338",
      "region": 1184
    },
    "9140": {
      "stop_name": "University Bridge & NE 40th St",
      "latitude": "47.6557655",
      "longitude": "-122.318504",
      "region": 1184
    },
    "9141": {
      "stop_name": "Eastlake Ave E & Harvard Ave E",
      "latitude": "47.6503105",
      "longitude": "-122.322372",
      "region": 1184
    },
    "9142": {
      "stop_name": "University Way NE & NE 41st St",
      "latitude": "47.6569481",
      "longitude": "-122.313339",
      "region": 1184
    },
    "9144": {
      "stop_name": "NE Campus Pkwy & University Way NE",
      "latitude": "47.6562805",
      "longitude": "-122.313187",
      "region": 1184
    },
    "9147": {
      "stop_name": "Brooklyn Ave NE & NE Campus Pkwy - Bay 3",
      "latitude": "47.656498",
      "longitude": "-122.314308",
      "region": 1184
    },
    "9150": {
      "stop_name": "Eastlake Ave E & E Allison St",
      "latitude": "47.648613",
      "longitude": "-122.323685",
      "region": 1184
    },
    "9170": {
      "stop_name": "Eastlake Ave E & E Hamlin St",
      "latitude": "47.6457291",
      "longitude": "-122.32592",
      "region": 1116
    },
    "9190": {
      "stop_name": "Eastlake Ave E & E Louisa St",
      "latitude": "47.6418648",
      "longitude": "-122.325989",
      "region": 1116
    },
    "9200": {
      "stop_name": "Eastlake Ave E & E Lynn St",
      "latitude": "47.6394691",
      "longitude": "-122.326004",
      "region": 1116
    },
    "9220": {
      "stop_name": "Eastlake Ave E & E Newton St",
      "latitude": "47.6365471",
      "longitude": "-122.32592",
      "region": 1115
    },
    "9240": {
      "stop_name": "Eastlake Ave E & E Garfield St",
      "latitude": "47.6333923",
      "longitude": "-122.325836",
      "region": 1115
    },
    "9460": {
      "stop_name": "Eastlake Ave E & E Garfield St",
      "latitude": "47.6341095",
      "longitude": "-122.325386",
      "region": 1115
    },
    "9480": {
      "stop_name": "Eastlake Ave E & E Howe St",
      "latitude": "47.6361618",
      "longitude": "-122.325577",
      "region": 1115
    },
    "9500": {
      "stop_name": "Eastlake Ave E & E Lynn St",
      "latitude": "47.6399307",
      "longitude": "-122.325783",
      "region": 1116
    },
    "9510": {
      "stop_name": "Eastlake Ave E & E Louisa St",
      "latitude": "47.6422806",
      "longitude": "-122.325783",
      "region": 1116
    },
    "9530": {
      "stop_name": "Eastlake Ave E & E Hamlin St",
      "latitude": "47.6460381",
      "longitude": "-122.325447",
      "region": 1116
    },
    "9550": {
      "stop_name": "Eastlake Ave E & E Allison St",
      "latitude": "47.6489449",
      "longitude": "-122.323204",
      "region": 1184
    },
    "9560": {
      "stop_name": "Eastlake Ave E & Harvard Ave E",
      "latitude": "47.6501503",
      "longitude": "-122.322273",
      "region": 1184
    },
    "9561": {
      "stop_name": "NE Pacific St & University Way NE",
      "latitude": "47.6533928",
      "longitude": "-122.313065",
      "region": 1184
    },
    "9575": {
      "stop_name": "NE Campus Pkwy & University Way NE - Bay 2",
      "latitude": "47.6559219",
      "longitude": "-122.313492",
      "region": 1184
    },
    "9580": {
      "stop_name": "NE Campus Pkwy & Brooklyn Ave NE - Bay 1",
      "latitude": "47.6559219",
      "longitude": "-122.31398",
      "region": 1184
    },
    "9581": {
      "stop_name": "University Way NE & NE 41st St",
      "latitude": "47.6573868",
      "longitude": "-122.313133",
      "region": 1185
    },
    "9582": {
      "stop_name": "U District Station - Bay 5",
      "latitude": "47.6596832",
      "longitude": "-122.313065",
      "region": 1185
    },
    "9584": {
      "stop_name": "University Way NE & NE 45th St",
      "latitude": "47.6620674",
      "longitude": "-122.313011",
      "region": 1185
    },
    "9586": {
      "stop_name": "NE 50th St & University Way NE",
      "latitude": "47.6649742",
      "longitude": "-122.313721",
      "region": 1185
    },
    "9587": {
      "stop_name": "U District Station - Bay 1",
      "latitude": "47.6598778",
      "longitude": "-122.314117",
      "region": 1185
    },
    "9589": {
      "stop_name": "Roosevelt Way NE & NE 50th St",
      "latitude": "47.6645966",
      "longitude": "-122.317505",
      "region": 1185
    },
    "9605": {
      "stop_name": "Roosevelt Way NE & NE 45th St",
      "latitude": "47.6609535",
      "longitude": "-122.317818",
      "region": 1185
    },
    "9610": {
      "stop_name": "Roosevelt Way NE & NE 42nd St",
      "latitude": "47.6584549",
      "longitude": "-122.317879",
      "region": 1185
    },
    "9612": {
      "stop_name": "NE 42nd St & 8th Ave NE",
      "latitude": "47.6574516",
      "longitude": "-122.319389",
      "region": 1185
    },
    "9630": {
      "stop_name": "11th Ave NE & NE 42nd St",
      "latitude": "47.6585732",
      "longitude": "-122.316551",
      "region": 1185
    },
    "9650": {
      "stop_name": "11th Ave NE & NE 45th St",
      "latitude": "47.6619453",
      "longitude": "-122.316452",
      "region": 1185
    },
    "9660": {
      "stop_name": "11th Ave NE & NE 47th St",
      "latitude": "47.6633682",
      "longitude": "-122.316254",
      "region": 1185
    },
    "9670": {
      "stop_name": "NE 125th St & Lake City Way NE",
      "latitude": "47.7192078",
      "longitude": "-122.294708",
      "region": 1325
    },
    "9680": {
      "stop_name": "NE 125th St & 33rd Ave NE",
      "latitude": "47.7191963",
      "longitude": "-122.292862",
      "region": 1325
    },
    "9690": {
      "stop_name": "NE 125th St & 35th Ave NE",
      "latitude": "47.7191849",
      "longitude": "-122.291084",
      "region": 1392
    },
    "9710": {
      "stop_name": "NE 125th St & 39th Ave NE",
      "latitude": "47.7191467",
      "longitude": "-122.2864",
      "region": 1392
    },
    "9720": {
      "stop_name": "Sand Point Way NE & Bartlett Ave NE",
      "latitude": "47.7168655",
      "longitude": "-122.283722",
      "region": 1391
    },
    "9730": {
      "stop_name": "Sand Point Way NE & NE 120th St",
      "latitude": "47.7160225",
      "longitude": "-122.283218",
      "region": 1391
    },
    "9750": {
      "stop_name": "Sand Point Way NE & NE 115th St",
      "latitude": "47.7123718",
      "longitude": "-122.281921",
      "region": 1391
    },
    "9770": {
      "stop_name": "Sand Point Way NE & NE 110th St",
      "latitude": "47.708622",
      "longitude": "-122.280144",
      "region": 1458
    },
    "9790": {
      "stop_name": "Sand Point Way NE & NE 106th St",
      "latitude": "47.7050934",
      "longitude": "-122.278427",
      "region": 1457
    },
    "9800": {
      "stop_name": "Sand Point Way NE & NE 103rd St",
      "latitude": "47.7026825",
      "longitude": "-122.277771",
      "region": 1457
    },
    "9820": {
      "stop_name": "Sand Point Way NE & NE 97th St",
      "latitude": "47.6996536",
      "longitude": "-122.277824",
      "region": 1457
    },
    "9830": {
      "stop_name": "Sand Point Way NE & NE 95th St",
      "latitude": "47.6970482",
      "longitude": "-122.277527",
      "region": 1456
    },
    "9840": {
      "stop_name": "Sand Point Way NE & NE 93rd St",
      "latitude": "47.6958771",
      "longitude": "-122.276596",
      "region": 1456
    },
    "9850": {
      "stop_name": "Sand Point Way NE & Mathews Ave NE",
      "latitude": "47.6937714",
      "longitude": "-122.274055",
      "region": 1456
    },
    "9860": {
      "stop_name": "Sand Point Way NE & Inverness Dr NE",
      "latitude": "47.6928368",
      "longitude": "-122.271362",
      "region": 1456
    },
    "9895": {
      "stop_name": "Sand Point Way NE & NE 77th St",
      "latitude": "47.6844711",
      "longitude": "-122.264397",
      "region": 1522
    },
    "9900": {
      "stop_name": "Sand Point Way NE & NE 74th St",
      "latitude": "47.6818199",
      "longitude": "-122.263763",
      "region": 1522
    },
    "9901": {
      "stop_name": "62nd Ave NE & NE 65th St",
      "latitude": "47.6786041",
      "longitude": "-122.262329",
      "region": 1522
    },
    "9912": {
      "stop_name": "Sand Point Way NE & NE 70th St",
      "latitude": "47.6790886",
      "longitude": "-122.26371",
      "region": 1522
    },
    "9920": {
      "stop_name": "Sand Point Way NE & NE 65th St",
      "latitude": "47.6758881",
      "longitude": "-122.263634",
      "region": 1521
    },
    "9930": {
      "stop_name": "Sand Point Way NE & NE 62nd St",
      "latitude": "47.6736374",
      "longitude": "-122.266251",
      "region": 1521
    },
    "9950": {
      "stop_name": "Sand Point Way NE & NE 58th St",
      "latitude": "47.6705856",
      "longitude": "-122.270515",
      "region": 1454
    },
    "9970": {
      "stop_name": "Sand Point Way NE & Ivanhoe Pl NE",
      "latitude": "47.6683846",
      "longitude": "-122.274597",
      "region": 1454
    },
    "9972": {
      "stop_name": "Sand Point Way NE & Princeton Ave NE",
      "latitude": "47.6684837",
      "longitude": "-122.276482",
      "region": 1454
    },
    "9974": {
      "stop_name": "Sand Point Way NE & NE 52nd St",
      "latitude": "47.6666412",
      "longitude": "-122.281242",
      "region": 1386
    },
    "9976": {
      "stop_name": "Sand Point Way NE & NE 50th St",
      "latitude": "47.6647072",
      "longitude": "-122.283249",
      "region": 1386
    },
    "9978": {
      "stop_name": "Sand Point Way NE & 40th Ave NE",
      "latitude": "47.6627426",
      "longitude": "-122.285202",
      "region": 1386
    },
    "9980": {
      "stop_name": "NE 55th St & Princeton Ave NE",
      "latitude": "47.669342",
      "longitude": "-122.276146",
      "region": 1454
    },
    "9990": {
      "stop_name": "NE 55th St & 45th Ave NE",
      "latitude": "47.6690254",
      "longitude": "-122.279846",
      "region": 1454
    },
    "10005": {
      "stop_name": "40th Ave NE & NE 51st St",
      "latitude": "47.6658859",
      "longitude": "-122.284897",
      "region": 1386
    },
    "10010": {
      "stop_name": "NE 55th St & 39th Ave NE",
      "latitude": "47.6685791",
      "longitude": "-122.285667",
      "region": 1387
    },
    "10020": {
      "stop_name": "NE 55th St & 37th Ave NE",
      "latitude": "47.6685791",
      "longitude": "-122.2883",
      "region": 1387
    },
    "10030": {
      "stop_name": "NE 55th St & 35th Ave NE",
      "latitude": "47.6685791",
      "longitude": "-122.290512",
      "region": 1387
    },
    "10040": {
      "stop_name": "NE 55th St & 33rd Ave NE",
      "latitude": "47.6685829",
      "longitude": "-122.293015",
      "region": 1320
    },
    "10050": {
      "stop_name": "NE 55th St & 30th Ave NE",
      "latitude": "47.6685905",
      "longitude": "-122.295448",
      "region": 1320
    },
    "10060": {
      "stop_name": "NE 55th St & 27th Ave NE",
      "latitude": "47.6685944",
      "longitude": "-122.298859",
      "region": 1320
    },
    "10070": {
      "stop_name": "NE 55th St & 25th Ave NE",
      "latitude": "47.6685944",
      "longitude": "-122.30098",
      "region": 1320
    },
    "10083": {
      "stop_name": "Ravenna Ave NE & Ravenna Pl NE",
      "latitude": "47.6684799",
      "longitude": "-122.30378",
      "region": 1253
    },
    "10100": {
      "stop_name": "NE Ravenna Blvd & Park Rd NE",
      "latitude": "47.6695518",
      "longitude": "-122.305405",
      "region": 1253
    },
    "10110": {
      "stop_name": "20th Ave NE & NE 55th St",
      "latitude": "47.6682739",
      "longitude": "-122.30658",
      "region": 1253
    },
    "10120": {
      "stop_name": "20th Ave NE & NE 52nd St",
      "latitude": "47.6662827",
      "longitude": "-122.306602",
      "region": 1252
    },
    "10130": {
      "stop_name": "NE 50th St & 19th Ave NE",
      "latitude": "47.6649284",
      "longitude": "-122.307114",
      "region": 1252
    },
    "10145": {
      "stop_name": "NE 50th St & 16th Ave NE",
      "latitude": "47.664959",
      "longitude": "-122.311172",
      "region": 1252
    },
    "10170": {
      "stop_name": "Fairview Ave E & E Nelson Pl",
      "latitude": "47.6300545",
      "longitude": "-122.329338",
      "region": 1115
    },
    "10180": {
      "stop_name": "Fairview Ave N & Yale Ave N",
      "latitude": "47.6283493",
      "longitude": "-122.33152",
      "region": 1115
    },
    "10190": {
      "stop_name": "Fairview Ave N & Aloha St",
      "latitude": "47.6270752",
      "longitude": "-122.333122",
      "region": 1115
    },
    "10210": {
      "stop_name": "Fairview Ave N & Mercer St",
      "latitude": "47.6237869",
      "longitude": "-122.334457",
      "region": 1114
    },
    "10225": {
      "stop_name": "Fairview Ave N & Thomas St",
      "latitude": "47.6205864",
      "longitude": "-122.334435",
      "region": 1114
    },
    "10240": {
      "stop_name": "Boren Ave & Virginia St",
      "latitude": "47.6175003",
      "longitude": "-122.333817",
      "region": 1114
    },
    "10280": {
      "stop_name": "Fairview Ave & Denny Way",
      "latitude": "47.6188736",
      "longitude": "-122.334198",
      "region": 1114
    },
    "10305": {
      "stop_name": "Fairview Ave N & Harrison St",
      "latitude": "47.6222763",
      "longitude": "-122.334229",
      "region": 1114
    },
    "10325": {
      "stop_name": "Fairview Ave N & Valley St",
      "latitude": "47.6266136",
      "longitude": "-122.33345",
      "region": 1114
    },
    "10328": {
      "stop_name": "Valley St & Fairview Ave N",
      "latitude": "47.6260338",
      "longitude": "-122.334106",
      "region": 1114
    },
    "10340": {
      "stop_name": "Fairview Ave N & Yale Ave N",
      "latitude": "47.6288757",
      "longitude": "-122.330597",
      "region": 1115
    },
    "10350": {
      "stop_name": "Fairview Ave E & Yale Ave N",
      "latitude": "47.6299744",
      "longitude": "-122.329185",
      "region": 1115
    },
    "10370": {
      "stop_name": "NE 50th St & University Way NE",
      "latitude": "47.6648293",
      "longitude": "-122.31266",
      "region": 1252
    },
    "10380": {
      "stop_name": "NE 50th St & 16th Ave NE",
      "latitude": "47.664814",
      "longitude": "-122.310432",
      "region": 1252
    },
    "10400": {
      "stop_name": "20th Ave NE & NE 50th St",
      "latitude": "47.6650276",
      "longitude": "-122.306404",
      "region": 1252
    },
    "10410": {
      "stop_name": "20th Ave NE & NE 52nd St",
      "latitude": "47.6666412",
      "longitude": "-122.306404",
      "region": 1252
    },
    "10420": {
      "stop_name": "20th Ave NE & NE 54th St",
      "latitude": "47.6681633",
      "longitude": "-122.306389",
      "region": 1253
    },
    "10430": {
      "stop_name": "NE Ravenna Blvd & 21st Ave NE",
      "latitude": "47.669239",
      "longitude": "-122.305595",
      "region": 1253
    },
    "10445": {
      "stop_name": "Ravenna Ave NE & NE 54th St",
      "latitude": "47.6680031",
      "longitude": "-122.303864",
      "region": 1253
    },
    "10460": {
      "stop_name": "NE 55th St & 25th Ave NE",
      "latitude": "47.6684494",
      "longitude": "-122.300217",
      "region": 1320
    },
    "10470": {
      "stop_name": "NE 55th St & 27th Ave NE",
      "latitude": "47.6684494",
      "longitude": "-122.298218",
      "region": 1320
    },
    "10480": {
      "stop_name": "NE 55th St & 30th Ave NE",
      "latitude": "47.6684494",
      "longitude": "-122.295074",
      "region": 1320
    },
    "10490": {
      "stop_name": "NE 55th St & 33rd Ave NE",
      "latitude": "47.6684494",
      "longitude": "-122.29232",
      "region": 1320
    },
    "10500": {
      "stop_name": "NE 55th St & 35th Ave NE",
      "latitude": "47.6684456",
      "longitude": "-122.29039",
      "region": 1387
    },
    "10510": {
      "stop_name": "NE 55th St & 36th Ave NE",
      "latitude": "47.6684456",
      "longitude": "-122.288803",
      "region": 1387
    },
    "10513": {
      "stop_name": "40th Ave NE & NE 46th St",
      "latitude": "47.6619339",
      "longitude": "-122.284668",
      "region": 1386
    },
    "10515": {
      "stop_name": "40th Ave NE & NE 50th St",
      "latitude": "47.6650925",
      "longitude": "-122.284698",
      "region": 1386
    },
    "10525": {
      "stop_name": "NE 55th St & 40th Ave NE",
      "latitude": "47.6684418",
      "longitude": "-122.285049",
      "region": 1387
    },
    "10550": {
      "stop_name": "NE 55th St & 45th Ave NE",
      "latitude": "47.6690025",
      "longitude": "-122.279121",
      "region": 1454
    },