{"250":{"stop_name":"2nd Ave & Bell St","latitude":"47.6137047","longitude":"-122.345253","route_ids":["100104"]},"280":{"stop_name":"2nd Ave & Stewart St","latitude":"47.6106148","longitude":"-122.340248","route_ids":["100240","100104"]},"320":{"stop_name":"2nd Ave & Seneca St","latitude":"47.6062126","longitude":"-122.336205","route_ids":["100239","100240","100104"]},"340":{"stop_name":"2nd Ave & Marion St","latitude":"47.6044655","longitude":"-122.334625","route_ids":["100045","100003"]},"360":{"stop_name":"2nd Ave & Cherry St","latitude":"47.6030197","longitude":"-122.333282","route_ids":["100239","100240","100104"]},"361":{"stop_name":"2nd Ave & James St","latitude":"47.602478","longitude":"-122.332809","route_ids":["100045","100003"]},"375":{"stop_name":"2nd Ave Ext S & Yesler Way","latitude":"47.6012535","longitude":"-122.331688","route_ids":["100239","100240","100104"]},"390":{"stop_name":"2nd Ave Ext S & S Jackson St","latitude":"47.5992661","longitude":"-122.329857","route_ids":["100045","100003"]},"400":{"stop_name":"3rd Ave & Bell St","latitude":"47.6142998","longitude":"-122.344269","route_ids":["100031","100023","100161","100101","100089","100028","102615","102581","100030","100219","100039","100173"]},"420":{"stop_name":"3rd Ave & Virginia St","latitude":"47.6124382","longitude":"-122.34111","route_ids":["100031","100023","100161","100101","100089","100028","102615","102581","102574","100030","100219","100039","102576","100019","100173","100252"]},"430":{"stop_name":"3rd Ave & Pine St","latitude":"47.6107903","longitude":"-122.338875","route_ids":["100089","100028","102574","100264","100219","100039","100263","100173","100210","100252"]},"431":{"stop_name":"3rd Ave & Pike St","latitude":"47.6097908","longitude":"-122.337959","route_ids":["100101","102615","102581","102576"]},"433":{"stop_name":"3rd Ave & Pike St","latitude":"47.6090698","longitude":"-122.337288","route_ids":["100031","100023","100161","100030","100019","100024"]},"450":{"stop_name":"3rd Ave & Union St","latitude":"47.6082535","longitude":"-122.336548","route_ids":["100089","100028","102574","100264","100219","100039","100263","100173","100210","100447","100252"]},"468":{"stop_name":"3rd Ave & Seneca St","latitude":"47.6064415","longitude":"-122.3349","route_ids":["100031","100023","100161","100101","102615","102581","100030","102576","100019","100024"]},"480":{"stop_name":"3rd Ave & Marion St","latitude":"47.6049957","longitude":"-122.333572","route_ids":["100089","100028","102574","100264","100219","100039","100263","100173","100210","100447","100252"]},"481":{"stop_name":"3rd Ave & Columbia St","latitude":"47.6042633","longitude":"-122.332901","route_ids":["100101","102576","100019","100024"]},"490":{"stop_name":"3rd Ave & Cherry St","latitude":"47.6035805","longitude":"-122.332275","route_ids":["100031","100023","100161","100101","102615","102581","100030"]},"500":{"stop_name":"3rd Ave & James St","latitude":"47.6028175","longitude":"-122.331581","route_ids":["100089","100028","102574","100264","100219","100039","100263","100210","100447","100252"]},"510":{"stop_name":"S Washington St & 3rd Ave S","latitude":"47.6009483","longitude":"-122.330841","route_ids":["102615"]},"515":{"stop_name":"3rd Ave S & S Main St","latitude":"47.6002388","longitude":"-122.330376","route_ids":["100031","100023","100101","100089","100028","102581","102574","102615","100030","100264","100219","100039","100263","100210","100447"]},"531":{"stop_name":"3rd Ave & James St","latitude":"47.6026421","longitude":"-122.331184","route_ids":["100194","100023","100101","102574","100031","100161","100252","100030"]},"538":{"stop_name":"3rd Ave & Columbia St","latitude":"47.6040955","longitude":"-122.332504","route_ids":["100089","100028","100210","100264","100039","100263","100219","100173","100447","102615","102581"]},"539":{"stop_name":"3rd Ave & Marion St","latitude":"47.604805","longitude":"-122.33316","route_ids":["100024","102576"]},"548":{"stop_name":"3rd Ave & Madison St","latitude":"47.6055412","longitude":"-122.333832","route_ids":["100194","100023","100101","102574","100031","100161","100252","100030","100019"]},"558":{"stop_name":"3rd Ave & Seneca St","latitude":"47.6070518","longitude":"-122.335213","route_ids":["100089","100028","100210","100264","100039","100263","100219","100173","100447","100024","102615","102581","102576"]},"570":{"stop_name":"3rd Ave & Union St","latitude":"47.6086884","longitude":"-122.3367","route_ids":["100194","100023","100101","102574","100031","100161","100252","100030","100019"]},"575":{"stop_name":"3rd Ave & Pike St","latitude":"47.609642","longitude":"-122.337585","route_ids":["100028","100089","100210","100264","100039","100263","100219","100173","100447","100024","102615","102581","102576"]},"590":{"stop_name":"3rd Ave & Pine St","latitude":"47.6111374","longitude":"-122.338951","route_ids":["100194","100023","100101","102574","100031","100161","100252","100030","100019"]},"600":{"stop_name":"3rd Ave & Virginia St","latitude":"47.6129951","longitude":"-122.341743","route_ids":["100194","100023","100028","100089","102574","100031","100252","100030","100039","100019","100219","100173","100101","102615","102581","102576"]},"605":{"stop_name":"3rd Ave & Bell St","latitude":"47.6151199","longitude":"-122.345337","route_ids":["100194","100023","100028","100089","100031","100030","100219","100173","102615","102581"]},"619":{"stop_name":"4th Ave S & S Jackson St","latitude":"47.5998268","longitude":"-122.328972","route_ids":["100023","100101","102574","100031","100194","100030"]},"620":{"stop_name":"4th Ave S & S Jackson St","latitude":"47.5988121","longitude":"-122.328903","route_ids":["100236","100045","100239","100240","100003","100104"]},"625":{"stop_name":"S Washington St & 4th Ave S","latitude":"47.6008034","longitude":"-122.329048","route_ids":["100252"]},"628":{"stop_name":"4th Ave S & S Washington St","latitude":"47.6013107","longitude":"-122.328903","route_ids":["100239","100240","100104"]},"640":{"stop_name":"4th Ave & James St","latitude":"47.6030121","longitude":"-122.329979","route_ids":["100236","100045","100003"]},"648":{"stop_name":"4th Ave & Cherry St","latitude":"47.6043205","longitude":"-122.331169","route_ids":["100239","100240","100104"]},"660":{"stop_name":"4th Ave & Madison St","latitude":"47.6060066","longitude":"-122.33271","route_ids":["100236","100045","100003"]},"670":{"stop_name":"4th Ave & Seneca St","latitude":"47.6074982","longitude":"-122.334076","route_ids":["100239","100240","100104"]},"691":{"stop_name":"4th Ave & Union St","latitude":"47.6091614","longitude":"-122.335609","route_ids":["100045","100239","100003"]},"700":{"stop_name":"4th Ave & Pike St","latitude":"47.6109505","longitude":"-122.33725","route_ids":["100236","100240","100104"]},"720":{"stop_name":"4th Ave & Stewart St","latitude":"47.6126671","longitude":"-122.339203","route_ids":["100240","100104"]},"730":{"stop_name":"4th Ave & Lenora St","latitude":"47.614151","longitude":"-122.341728","route_ids":["100240"]},"760":{"stop_name":"5th Ave & Pine St","latitude":"47.6117249","longitude":"-122.336662","route_ids":["100236"]},"790":{"stop_name":"5th Ave & Seneca St","latitude":"47.6081772","longitude":"-122.333405","route_ids":["100236"]},"810":{"stop_name":"5th Ave & Marion St","latitude":"47.6058311","longitude":"-122.331261","route_ids":["100236"]},"820":{"stop_name":"5th Ave & Jefferson St","latitude":"47.6030922","longitude":"-122.328766","route_ids":["100236"]},"844":{"stop_name":"5th Ave S & S Weller St","latitude":"47.5977402","longitude":"-122.327782","route_ids":["100236","100005","100210","100039","100263"]},"880":{"stop_name":"Virginia St & 6th Ave","latitude":"47.614315","longitude":"-122.338287","route_ids":["100264","100263"]},"900":{"stop_name":"Virginia St & 9th Ave","latitude":"47.6165466","longitude":"-122.335388","route_ids":["100264"]},"905":{"stop_name":"Stewart St & Yale Ave N","latitude":"47.6190186","longitude":"-122.33017","route_ids":["100236"]},"940":{"stop_name":"Stewart St & 9th Ave","latitude":"47.6157036","longitude":"-122.334457","route_ids":["100236","100264"]},"950":{"stop_name":"Stewart St & 7th Ave","latitude":"47.61446","longitude":"-122.336075","route_ids":["100236","100264"]},"1000":{"stop_name":"Pine St & 9th Ave","latitude":"47.6134148","longitude":"-122.332138","route_ids":["100447"]},"1040":{"stop_name":"Olive Way & 6th Ave","latitude":"47.6130257","longitude":"-122.336334","route_ids":["100104"]},"1050":{"stop_name":"Olive Way & 8th Ave","latitude":"47.6139374","longitude":"-122.33416","route_ids":["100236","100104"]},"1051":{"stop_name":"Olive Way & Boren Ave","latitude":"47.6156731","longitude":"-122.330032","route_ids":["100236"]},"1085":{"stop_name":"Pine St & 9th Ave","latitude":"47.6133766","longitude":"-122.332603","route_ids":["100002","100263","100447"]},"1110":{"stop_name":"Pine St & 5th Ave","latitude":"47.6117668","longitude":"-122.336456","route_ids":["100002","100263","100447"]},"1120":{"stop_name":"Pine St & 4th Ave","latitude":"47.6111031","longitude":"-122.338028","route_ids":["100002","100447"]},"1180":{"stop_name":"Pike St & 4th Ave","latitude":"47.6100731","longitude":"-122.336838","route_ids":["100002","100447"]},"1190":{"stop_name":"Pike St & 6th Ave","latitude":"47.6110344","longitude":"-122.334526","route_ids":["100045","100239","100003","100447"]},"1195":{"stop_name":"Pike St & 7th Ave","latitude":"47.6118088","longitude":"-122.332687","route_ids":["100002"]},"1215":{"stop_name":"Union St & 5th Ave","latitude":"47.6098289","longitude":"-122.334511","route_ids":["100239","100045","100003"]},"1230":{"stop_name":"Union St & 4th Ave","latitude":"47.6090813","longitude":"-122.336288","route_ids":["100239","100045","100003"]},"1250":{"stop_name":"Seneca St & 4th Ave","latitude":"47.6074219","longitude":"-122.33461","route_ids":["100028","100089"]},"1260":{"stop_name":"Seneca St & 6th Ave","latitude":"47.6087418","longitude":"-122.331482","route_ids":["100028","100089"]},"1270":{"stop_name":"Spring St & 4th Ave","latitude":"47.6068764","longitude":"-122.333206","route_ids":["100089"]},"1280":{"stop_name":"Spring St & 6th Ave","latitude":"47.6078148","longitude":"-122.330948","route_ids":["100089"]},"1300":{"stop_name":"Madison St & 8th Ave","latitude":"47.6080284","longitude":"-122.328079","route_ids":["100018"]},"1340":{"stop_name":"Yesler Way & Prefontaine Pl S","latitude":"47.6016464","longitude":"-122.329857","route_ids":["100161"]},"1350":{"stop_name":"Yesler Way & 6th Ave S","latitude":"47.6016388","longitude":"-122.32505","route_ids":["100161"]},"1360":{"stop_name":"Yesler Way & 5th Ave","latitude":"47.6017799","longitude":"-122.327141","route_ids":["100161"]},"1370":{"stop_name":"Yesler Way & 3rd Ave","latitude":"47.6017799","longitude":"-122.329803","route_ids":["100194","100161"]},"1400":{"stop_name":"Madison St & 5th Ave","latitude":"47.6066818","longitude":"-122.331688","route_ids":["100018"]},"1404":{"stop_name":"S Washington St & 3rd Ave S","latitude":"47.6008034","longitude":"-122.329758","route_ids":["102615"]},"1415":{"stop_name":"Madison St & 4th Ave","latitude":"47.6059837","longitude":"-122.333366","route_ids":["100018"]},"1420":{"stop_name":"Madison St & 2nd Ave","latitude":"47.6053276","longitude":"-122.334923","route_ids":["100018"]},"1471":{"stop_name":"S Jackson St & 5th Ave S","latitude":"47.5991287","longitude":"-122.328041","route_ids":["100005","100089","100028","100264","100219","100039","100263","100210","100447"]},"1480":{"stop_name":"S Jackson St & Maynard Ave S","latitude":"47.5991173","longitude":"-122.32457","route_ids":["100005","100240","100039","100263","100210"]},"1490":{"stop_name":"S Jackson St & 8th Ave S","latitude":"47.5991173","longitude":"-122.322044","route_ids":["100005","100039","100263","100210"]},"1500":{"stop_name":"S Jackson St & 8th Ave S","latitude":"47.5992661","longitude":"-122.322327","route_ids":["100005","100210","100039","100263","100447"]},"1510":{"stop_name":"S Jackson St & Maynard Ave S","latitude":"47.5992622","longitude":"-122.32547","route_ids":["100005","100210","100039","100263","100447"]},"1530":{"stop_name":"S Jackson St & 5th Ave S","latitude":"47.5992661","longitude":"-122.328384","route_ids":["100089","100028","100252","100210","100264","100039","100263","100219","100173","100447"]},"1540":{"stop_name":"James St & 5th Ave","latitude":"47.6038017","longitude":"-122.329094","route_ids":["100219","100173"]},"1551":{"stop_name":"S Jackson St & Occidental Ave Walk","latitude":"47.5992737","longitude":"-122.333282","route_ids":["102638"]},"1558":{"stop_name":"Columbia St & Alaskan Way","latitude":"47.6024704","longitude":"-122.33712","route_ids":["100101","102576","100019","100024"]},"1560":{"stop_name":"James St & 3rd Ave","latitude":"47.602932","longitude":"-122.330826","route_ids":["100219","100173"]},"1561":{"stop_name":"Alaskan Way S & S Jackson St","latitude":"47.5996933","longitude":"-122.335815","route_ids":["100019","100024","100101","102576"]},"1562":{"stop_name":"Alaskan Way S & S Jackson St","latitude":"47.5987091","longitude":"-122.336014","route_ids":["100101","102576","100019","100024"]},"1565":{"stop_name":"Columbia St & Western Ave","latitude":"47.6026535","longitude":"-122.336288","route_ids":["100019","100024","100101","102576"]},"1570":{"stop_name":"James St & 5th Ave","latitude":"47.6037712","longitude":"-122.328773","route_ids":["100219","100173"]},"1580":{"stop_name":"Marion St & 2nd Ave","latitude":"47.6045341","longitude":"-122.334076","route_ids":["100018"]},"1590":{"stop_name":"Marion St & 4th Ave","latitude":"47.6054611","longitude":"-122.331863","route_ids":["100018"]},"1610":{"stop_name":"Prefontaine Pl S & Yesler Way","latitude":"47.6016579","longitude":"-122.329941","route_ids":["100089","100028","100210","100264","100039","100263","100219","100173","100447","102615","102581"]},"1619":{"stop_name":"Westlake Ave & Virginia St","latitude":"47.6148643","longitude":"-122.33786","route_ids":["100340"]},"1630":{"stop_name":"Westlake Ave & Olive Way","latitude":"47.6132812","longitude":"-122.337547","route_ids":["100340"]},"1651":{"stop_name":"S Jackson St & 5th Ave S","latitude":"47.5992622","longitude":"-122.327263","route_ids":["102638"]},"1652":{"stop_name":"S Jackson St & 5th Ave S","latitude":"47.5991249","longitude":"-122.327286","route_ids":["102638"]},"1661":{"stop_name":"S Jackson St & 8th Ave S","latitude":"47.5992661","longitude":"-122.323341","route_ids":["102638"]},"1662":{"stop_name":"S Jackson St & 8th Ave S","latitude":"47.5991249","longitude":"-122.323395","route_ids":["102638"]},"1671":{"stop_name":"S Jackson St & 12th Ave S","latitude":"47.5992737","longitude":"-122.315536","route_ids":["102638"]},"1672":{"stop_name":"S Jackson St & 12th Ave S","latitude":"47.5991402","longitude":"-122.315529","route_ids":["102638"]},"1681":{"stop_name":"14th Ave S & S Washington St","latitude":"47.6005745","longitude":"-122.31424","route_ids":["102638"]},"1682":{"stop_name":"14th Ave S & S Washington St","latitude":"47.6005936","longitude":"-122.314041","route_ids":["102638"]},"1690":{"stop_name":"3rd Ave & Vine St","latitude":"47.6169586","longitude":"-122.34845","route_ids":["100194","100028","100089","100219","100173","102581"]},"1710":{"stop_name":"Terrace St & 5th Ave","latitude":"47.602047","longitude":"-122.328255","route_ids":["102581"]},"1890":{"stop_name":"Marion St & 1st Ave","latitude":"47.6041451","longitude":"-122.335022","route_ids":["100018"]},"1907":{"stop_name":"West Seattle Water Taxi & Colman Dock","latitude":"47.6011467","longitude":"-122.338737","route_ids":["100336"]},"1920":{"stop_name":"Lenora St & 4th Ave","latitude":"47.6139717","longitude":"-122.341293","route_ids":["100240"]},"2180":{"stop_name":"Queen Anne Ave N & W Harrison St","latitude":"47.6218338","longitude":"-122.356819","route_ids":["100275","100089","100028","100193"]},"2200":{"stop_name":"Queen Anne Ave N & W John St","latitude":"47.6192131","longitude":"-122.35685","route_ids":["100275","100089","100028","102581"]},"2220":{"stop_name":"3rd Ave & Cedar St","latitude":"47.6167755","longitude":"-122.34845","route_ids":["100194","100023","100161","100089","100028","102581","100219","100039","100173"]},"2244":{"stop_name":"Denny Way & 2nd Ave N","latitude":"47.618515","longitude":"-122.351944","route_ids":["100194","100275","100089","100028"]},"2245":{"stop_name":"Denny Way & 5th Ave N","latitude":"47.6185036","longitude":"-122.347878","route_ids":["100275"]},"2247":{"stop_name":"Denny Way & 6th Ave","latitude":"47.6184959","longitude":"-122.345131","route_ids":["100275"]},"2250":{"stop_name":"Denny Way & Dexter Ave","latitude":"47.6184807","longitude":"-122.342545","route_ids":["100275"]},"2255":{"stop_name":"Denny Way & Westlake Ave","latitude":"47.6184692","longitude":"-122.338219","route_ids":["100275"]},"2260":{"stop_name":"Denny Way & Fairview Ave","latitude":"47.6184616","longitude":"-122.334572","route_ids":["100275"]},"2262":{"stop_name":"Denny Way & Stewart St","latitude":"47.6184273","longitude":"-122.330925","route_ids":["100275"]},"2275":{"stop_name":"E Denny Way & Bellevue Ave E","latitude":"47.6185646","longitude":"-122.326553","route_ids":["100275"]},"2285":{"stop_name":"Denny Way & Fairview Ave N","latitude":"47.6186028","longitude":"-122.334213","route_ids":["100275"]},"2291":{"stop_name":"Denny Way & Westlake Ave","latitude":"47.6186066","longitude":"-122.33902","route_ids":["100275"]},"2295":{"stop_name":"Denny Way & Dexter Ave N","latitude":"47.6186142","longitude":"-122.342163","route_ids":["100275"]},"2297":{"stop_name":"Denny Way & 6th Ave N","latitude":"47.6186295","longitude":"-122.345291","route_ids":["100275"]},"2300":{"stop_name":"Denny Way & 5th Ave N","latitude":"47.6186409","longitude":"-122.347847","route_ids":["100275"]},"2330":{"stop_name":"1st Ave N & Denny Way","latitude":"47.6191177","longitude":"-122.355362","route_ids":["100028","100089","100275","102581"]},"2360":{"stop_name":"1st Ave N & Republican St","latitude":"47.6231232","longitude":"-122.355309","route_ids":["100028","100089","100275","102581"]},"2361":{"stop_name":"Republican St & 1st Ave N","latitude":"47.6231995","longitude":"-122.355537","route_ids":["100193"]},"2370":{"stop_name":"Mercer St & Queen Anne Ave N","latitude":"47.624649","longitude":"-122.356552","route_ids":["100193","100275","102581"]},"2550":{"stop_name":"7th Ave W & W Pleasant Pl","latitude":"47.6426506","longitude":"-122.366356","route_ids":["100089"]},"2570":{"stop_name":"W Mcgraw St & 6th Ave W","latitude":"47.6395149","longitude":"-122.365318","route_ids":["100089"]},"2580":{"stop_name":"6th Ave W & W Crockett St","latitude":"47.6375656","longitude":"-122.365089","route_ids":["100089"]},"2590":{"stop_name":"6th Ave W & W Howe St","latitude":"47.6360245","longitude":"-122.365097","route_ids":["100089"]},"2600":{"stop_name":"6th Ave W & W Blaine St","latitude":"47.6345253","longitude":"-122.365128","route_ids":["100089"]},"2610":{"stop_name":"6th Ave W & W Galer St","latitude":"47.6324577","longitude":"-122.365158","route_ids":["100089"]},"2620":{"stop_name":"W Galer St & 5th Ave W","latitude":"47.6322632","longitude":"-122.362793","route_ids":["100089"]},"2630":{"stop_name":"W Galer St & 2nd Ave W","latitude":"47.6322441","longitude":"-122.358505","route_ids":["100089"]},"2640":{"stop_name":"Queen Anne Ave N & W Galer St","latitude":"47.6318359","longitude":"-122.356697","route_ids":["100089","100028"]},"2660":{"stop_name":"Queen Anne Ave N & W Highland Dr","latitude":"47.629612","longitude":"-122.356728","route_ids":["100089","100028"]},"2670":{"stop_name":"Queen Anne Ave N & W Prospect St","latitude":"47.6285133","longitude":"-122.356781","route_ids":["100089","100028"]},"2672":{"stop_name":"Queen Anne Ave N & W Mercer St","latitude":"47.6240616","longitude":"-122.356812","route_ids":["100275","100089","100028","102581","100193"]},"2680":{"stop_name":"Queen Anne Ave N & W Aloha St","latitude":"47.626545","longitude":"-122.356796","route_ids":["100089","100028"]},"2690":{"stop_name":"1st Ave N & Mercer St","latitude":"47.6247368","longitude":"-122.355309","route_ids":["100028","100089"]},"2710":{"stop_name":"Queen Anne Ave N & Aloha St","latitude":"47.6271095","longitude":"-122.35659","route_ids":["100028","100089"]},"2720":{"stop_name":"Queen Anne Ave N & Ward St","latitude":"47.6283188","longitude":"-122.356575","route_ids":["100028","100089"]},"2730":{"stop_name":"Queen Anne Ave N & Highland Dr","latitude":"47.6297913","longitude":"-122.356522","route_ids":["100028","100089"]},"2740":{"stop_name":"Queen Anne Ave N & W Lee St","latitude":"47.6314926","longitude":"-122.356491","route_ids":["100028","100089"]},"2760":{"stop_name":"W Galer St & 1st Ave W","latitude":"47.6323891","longitude":"-122.358627","route_ids":["100089"]},"2770":{"stop_name":"W Galer St & 3rd Ave W","latitude":"47.6323929","longitude":"-122.36129","route_ids":["100089"]},"2780":{"stop_name":"W Galer St & 5th Ave W","latitude":"47.6323929","longitude":"-122.364037","route_ids":["100089"]},"2790":{"stop_name":"6th Ave W & W Garfield St","latitude":"47.6337013","longitude":"-122.364937","route_ids":["100089"]},"2800":{"stop_name":"6th Ave W & W Howe St","latitude":"47.6361618","longitude":"-122.364899","route_ids":["100089"]},"2810":{"stop_name":"6th Ave W & W Crockett St","latitude":"47.63797","longitude":"-122.364868","route_ids":["100089"]},"2820":{"stop_name":"6th Ave W & W Mcgraw St","latitude":"47.6398392","longitude":"-122.364838","route_ids":["100089"]},"2830":{"stop_name":"6th Ave W & W Smith St","latitude":"47.6416321","longitude":"-122.364815","route_ids":["100089"]},"2840":{"stop_name":"6th Ave W & W Raye St","latitude":"47.6430016","longitude":"-122.364799","route_ids":["100089"]},"2850":{"stop_name":"Madrona Park & Lake Washington Blvd","latitude":"47.6121902","longitude":"-122.2817","route_ids":["100089"]},"2860":{"stop_name":"Madrona Dr & Newport Way","latitude":"47.6135712","longitude":"-122.282578","route_ids":["100089"]},"2870":{"stop_name":"Madrona Dr & E Pine St","latitude":"47.6152115","longitude":"-122.283791","route_ids":["100089"]},"2880":{"stop_name":"Madrona Dr & E Olive St","latitude":"47.616684","longitude":"-122.284492","route_ids":["100089"]},"2890":{"stop_name":"Madrona Dr & Madrona Pl E","latitude":"47.6183472","longitude":"-122.285255","route_ids":["100089"]},"2900":{"stop_name":"E Denny Way & E Florence Ct","latitude":"47.6183548","longitude":"-122.288628","route_ids":["100089"]},"2910":{"stop_name":"34th Ave & E Howell St","latitude":"47.6173935","longitude":"-122.289284","route_ids":["100089"]},"2911":{"stop_name":"34th Ave & E Olive St","latitude":"47.6163025","longitude":"-122.289314","route_ids":["100089"]},"2920":{"stop_name":"34th Ave & E Pine St","latitude":"47.6149864","longitude":"-122.289337","route_ids":["100089"]},"2930":{"stop_name":"34th Ave & E Union St","latitude":"47.6130142","longitude":"-122.289406","route_ids":["100089"]},"2940":{"stop_name":"E Union St & 33rd Ave","latitude":"47.6129723","longitude":"-122.290802","route_ids":["100089"]},"2950":{"stop_name":"E Union St & 31st Ave","latitude":"47.6130066","longitude":"-122.292915","route_ids":["100089"]},"2960":{"stop_name":"E Union St & 29th Ave","latitude":"47.6130295","longitude":"-122.295296","route_ids":["100089"]},"2970":{"stop_name":"E Union St & 27th Ave","latitude":"47.6130066","longitude":"-122.297836","route_ids":["100089"]},"2980":{"stop_name":"E Union St & 25th Ave","latitude":"47.6130066","longitude":"-122.300461","route_ids":["100089"]},"2995":{"stop_name":"E Union St & 23rd Ave","latitude":"47.6130066","longitude":"-122.303001","route_ids":["100089"]},"3000":{"stop_name":"E Union St & 20th Ave","latitude":"47.6129799","longitude":"-122.306168","route_ids":["100089"]},"3010":{"stop_name":"E Union St & 18th Ave","latitude":"47.6129723","longitude":"-122.309349","route_ids":["100089"]},"3030":{"stop_name":"E Union St & 14th Ave","latitude":"47.6129723","longitude":"-122.314423","route_ids":["100089"]},"3032":{"stop_name":"E Union St & Broadway","latitude":"47.6130295","longitude":"-122.320595","route_ids":["100089"]},"3033":{"stop_name":"Seneca St & Harvard Ave","latitude":"47.6126022","longitude":"-122.322319","route_ids":["100089"]},"3034":{"stop_name":"Seneca St & Summit Ave","latitude":"47.6116295","longitude":"-122.32457","route_ids":["100089"]},"3035":{"stop_name":"Seneca St & Boren Ave","latitude":"47.6109276","longitude":"-122.326233","route_ids":["100089"]},"3036":{"stop_name":"Seneca St & Terry Ave","latitude":"47.6102257","longitude":"-122.327904","route_ids":["100089"]},"3037":{"stop_name":"Seneca St & 8th Ave","latitude":"47.6092796","longitude":"-122.33017","route_ids":["100028","100089"]},"3150":{"stop_name":"Seneca St & 8th Ave","latitude":"47.6092529","longitude":"-122.329842","route_ids":["100089"]},"3151":{"stop_name":"Seneca St & 9th Ave","latitude":"47.60989","longitude":"-122.328316","route_ids":["100089"]},"3152":{"stop_name":"Seneca St & Boren Ave","latitude":"47.6108093","longitude":"-122.326126","route_ids":["100089"]},"3153":{"stop_name":"Seneca St & Summit Ave","latitude":"47.611763","longitude":"-122.323883","route_ids":["100089"]},"3154":{"stop_name":"Seneca St & Boylston Ave","latitude":"47.6122208","longitude":"-122.322777","route_ids":["100089"]},"3155":{"stop_name":"E Union St & Broadway","latitude":"47.6128845","longitude":"-122.320389","route_ids":["100089"]},"3156":{"stop_name":"E Madison St & 12th Ave","latitude":"47.6124802","longitude":"-122.317429","route_ids":["100018","100089"]},"3160":{"stop_name":"E Union St & 13th Ave","latitude":"47.6128387","longitude":"-122.315636","route_ids":["100089"]},"3190":{"stop_name":"E Union St & 18th Ave","latitude":"47.6128387","longitude":"-122.309021","route_ids":["100089"]},"3200":{"stop_name":"E Union St & 20th Ave","latitude":"47.6128387","longitude":"-122.306412","route_ids":["100089"]},"3209":{"stop_name":"E Union St & 22nd Ave","latitude":"47.6128616","longitude":"-122.303764","route_ids":["100089"]},"3220":{"stop_name":"E Union St & 26th Ave","latitude":"47.6128616","longitude":"-122.298477","route_ids":["100089"]},"3230":{"stop_name":"E Union St & Martin L King Jr Way","latitude":"47.612896","longitude":"-122.295654","route_ids":["100089"]},"3240":{"stop_name":"E Union St & 30th Ave","latitude":"47.6128807","longitude":"-122.293755","route_ids":["100089"]},"3250":{"stop_name":"E Union St & 32nd Ave","latitude":"47.6128387","longitude":"-122.291183","route_ids":["100089"]},"3271":{"stop_name":"34th Ave & E Olive St","latitude":"47.6166916","longitude":"-122.289093","route_ids":["100089"]},"3280":{"stop_name":"34th Ave & E Howell St","latitude":"47.6175575","longitude":"-122.289078","route_ids":["100089"]},"3293":{"stop_name":"34th Ave & E Pike St","latitude":"47.6144218","longitude":"-122.289162","route_ids":["100089"]},"3300":{"stop_name":"Madrona Dr & 38th Ave","latitude":"47.6181641","longitude":"-122.285149","route_ids":["100089"]},"3310":{"stop_name":"Madrona Dr & E Olive St","latitude":"47.6165276","longitude":"-122.284698","route_ids":["100089"]},"3320":{"stop_name":"Madrona Dr & E Pine St","latitude":"47.6150093","longitude":"-122.283859","route_ids":["100089"]},"3330":{"stop_name":"Madrona Dr & Newport Way","latitude":"47.6134796","longitude":"-122.28273","route_ids":["100089"]},"3380":{"stop_name":"Beacon Ave S & S Columbian Way","latitude":"47.5592232","longitude":"-122.304161","route_ids":["100210"]},"3400":{"stop_name":"Beacon Ave S & Veterans Administration Hospital","latitude":"47.5637321","longitude":"-122.305565","route_ids":["100210"]},"3410":{"stop_name":"Beacon Ave S & Jefferson Golf Course","latitude":"47.5673218","longitude":"-122.306671","route_ids":["100210"]},"3420":{"stop_name":"Beacon Ave S & Jefferson Community Center","latitude":"47.569809","longitude":"-122.307449","route_ids":["100210"]},"3430":{"stop_name":"Beacon Ave S & S Spokane St","latitude":"47.5724297","longitude":"-122.308304","route_ids":["100210"]},"3450":{"stop_name":"Beacon Ave S & S Hanford St","latitude":"47.5753593","longitude":"-122.309204","route_ids":["100210"]},"3460":{"stop_name":"Beacon Ave S & S Stevens St","latitude":"47.5774956","longitude":"-122.310432","route_ids":["100210"]},"3470":{"stop_name":"Beacon Ave S & S Lander St","latitude":"47.579319","longitude":"-122.312126","route_ids":["100249","100210"]},"3484":{"stop_name":"Beacon Ave S & 15th Ave S","latitude":"47.5809555","longitude":"-122.313629","route_ids":["100249","100210"]},"3500":{"stop_name":"14th Ave S & S Hill St","latitude":"47.5845032","longitude":"-122.314583","route_ids":["100249","100210"]},"3515":{"stop_name":"14th Ave S & S Holgate St","latitude":"47.5866051","longitude":"-122.314568","route_ids":["100249","100210"]},"3530":{"stop_name":"S Massachusetts St & 14th Ave S","latitude":"47.5885086","longitude":"-122.315208","route_ids":["100249","100210"]},"3541":{"stop_name":"12th Ave S & S Massachusetts St","latitude":"47.5887604","longitude":"-122.317177","route_ids":["100249","100210"]},"3550":{"stop_name":"12th Ave S & S Atlantic St","latitude":"47.5902481","longitude":"-122.317177","route_ids":["100249","100210"]},"3570":{"stop_name":"12th Ave S & S Judkins St","latitude":"47.5927162","longitude":"-122.317177","route_ids":["100249","100210"]},"3580":{"stop_name":"S Charles St & Golf Dr S","latitude":"47.5941429","longitude":"-122.316727","route_ids":["100249","100210"]},"3589":{"stop_name":"12th Ave S & S Weller St","latitude":"47.5973778","longitude":"-122.317123","route_ids":["100249","100210"]},"3600":{"stop_name":"S Jackson St & 12th Ave S","latitude":"47.5992699","longitude":"-122.317757","route_ids":["100005","100210","100039","100263","100447"]},"3700":{"stop_name":"12th Ave S & S Jackson St","latitude":"47.5986519","longitude":"-122.317329","route_ids":["100249","100210"]},"3710":{"stop_name":"12th Ave S & S Weller St","latitude":"47.5973053","longitude":"-122.317329","route_ids":["100249","100210"]},"3730":{"stop_name":"Golf Dr S & 14th Ave S","latitude":"47.5929909","longitude":"-122.31501","route_ids":["100249","100210"]},"3740":{"stop_name":"14th Ave S & S Judkins St","latitude":"47.5911865","longitude":"-122.314949","route_ids":["100249","100210"]},"3760":{"stop_name":"14th Ave S & S Massachusetts St","latitude":"47.5881844","longitude":"-122.314964","route_ids":["100249","100210"]},"3770":{"stop_name":"14th Ave S & S Holgate St","latitude":"47.5861359","longitude":"-122.314774","route_ids":["100249","100210"]},"3778":{"stop_name":"14th Ave S & S Hill St","latitude":"47.5843391","longitude":"-122.314789","route_ids":["100249","100210"]},"3800":{"stop_name":"Beacon Ave S & S Bayview St","latitude":"47.5812912","longitude":"-122.314186","route_ids":["100249","100210"]},"3810":{"stop_name":"Beacon Ave S & S Lander St","latitude":"47.5792542","longitude":"-122.312302","route_ids":["100249","100006","100210"]},"3820":{"stop_name":"Beacon Ave S & S Stevens St","latitude":"47.5771141","longitude":"-122.310318","route_ids":["100210"]},"3830":{"stop_name":"Beacon Ave S & S Hanford St","latitude":"47.5751915","longitude":"-122.309349","route_ids":["100210"]},"3860":{"stop_name":"Beacon Ave S & S Spokane St","latitude":"47.5715675","longitude":"-122.308243","route_ids":["100210"]},"3870":{"stop_name":"Beacon Ave S & Jefferson Community Center","latitude":"47.5694923","longitude":"-122.307564","route_ids":["100210"]},"3880":{"stop_name":"Beacon Ave S & Jefferson Golf Course","latitude":"47.5668449","longitude":"-122.30674","route_ids":["100210"]},"3881":{"stop_name":"Beacon Ave S & Veterans Administration Hospital","latitude":"47.5633316","longitude":"-122.305634","route_ids":["100210"]},"3883":{"stop_name":"Beacon Ave S & S Columbian Way","latitude":"47.5592728","longitude":"-122.304665","route_ids":["100210"]},"3910":{"stop_name":"W Mcgraw St & 2nd Ave W","latitude":"47.6395187","longitude":"-122.359222","route_ids":["100028","100219","100173"]},"3920":{"stop_name":"Queen Anne Ave N & W Mcgraw St","latitude":"47.6393204","longitude":"-122.35701","route_ids":["100028","100219","100173"]},"3930":{"stop_name":"Boston St & Queen Anne Ave N","latitude":"47.6383247","longitude":"-122.356552","route_ids":["100219","100173"]},"3940":{"stop_name":"Boston St & Warren Ave N","latitude":"47.638195","longitude":"-122.3545","route_ids":["100219","100173"]},"3950":{"stop_name":"Boston St & Nob Hill Ave N","latitude":"47.6381874","longitude":"-122.350853","route_ids":["100219","100173"]},"3960":{"stop_name":"Boston St & Bigelow Ave N","latitude":"47.6381874","longitude":"-122.348404","route_ids":["100219","100173"]},"3980":{"stop_name":"5th Ave N & Newton St","latitude":"47.6363068","longitude":"-122.347229","route_ids":["100219","100173"]},"3990":{"stop_name":"Taylor Ave N & Blaine St","latitude":"47.6346092","longitude":"-122.347519","route_ids":["100219","100173"]},"4000":{"stop_name":"Taylor Ave N & Garfield St","latitude":"47.6331444","longitude":"-122.346054","route_ids":["100219","100173"]},"4010":{"stop_name":"Taylor Ave N & Lee St","latitude":"47.6310921","longitude":"-122.346375","route_ids":["100219","100173"]},"4020":{"stop_name":"Taylor Ave N & Prospect St","latitude":"47.6289711","longitude":"-122.346344","route_ids":["100219","100173"]},"4040":{"stop_name":"5th Ave N & Valley St","latitude":"47.6259346","longitude":"-122.347656","route_ids":["100219","100173"]},"4050":{"stop_name":"5th Ave N & Republican St","latitude":"47.6236115","longitude":"-122.347672","route_ids":["100219","100173"]},"4070":{"stop_name":"5th Ave N & Broad St","latitude":"47.6212883","longitude":"-122.34771","route_ids":["100219","100173"]},"4080":{"stop_name":"5th Ave N & Denny Way","latitude":"47.6192131","longitude":"-122.347725","route_ids":["100219","100173"]},"4200":{"stop_name":"Cedar St & Denny Way","latitude":"47.6185303","longitude":"-122.347519","route_ids":["100219","100173"]},"4220":{"stop_name":"5th Ave N & Broad St","latitude":"47.6213036","longitude":"-122.347504","route_ids":["100219","100173"]},"4230":{"stop_name":"5th Ave N & Republican St","latitude":"47.6235886","longitude":"-122.347466","route_ids":["100219","100173"]},"4245":{"stop_name":"Valley St & Taylor Ave N","latitude":"47.6261978","longitude":"-122.346382","route_ids":["100219","100173"]},"4265":{"stop_name":"Taylor Ave N & Prospect St","latitude":"47.6291275","longitude":"-122.346138","route_ids":["100219","100173"]},"4280":{"stop_name":"Taylor Ave N & Lee St","latitude":"47.6313553","longitude":"-122.346184","route_ids":["100219","100173"]},"4290":{"stop_name":"Taylor Ave N & Galer St","latitude":"47.6325073","longitude":"-122.345863","route_ids":["100219","100173"]},"4300":{"stop_name":"Taylor Ave N & 5th Ave N","latitude":"47.6342125","longitude":"-122.34626","route_ids":["100219","100173"]},"4325":{"stop_name":"5th Ave N & Newton St","latitude":"47.6367645","longitude":"-122.347015","route_ids":["100219","100173"]},"4340":{"stop_name":"Boston St & 4th Ave N","latitude":"47.6383247","longitude":"-122.349785","route_ids":["100219","100173"]},"4355":{"stop_name":"Boston St & 2nd Ave N","latitude":"47.6383286","longitude":"-122.353424","route_ids":["100219","100173"]},"4370":{"stop_name":"Boston St & 1st Ave N","latitude":"47.6384544","longitude":"-122.356247","route_ids":["100219","100173"]},"4465":{"stop_name":"Queen Anne Ave N & Garfield St","latitude":"47.6338272","longitude":"-122.356873","route_ids":["100028"]},"4489":{"stop_name":"Queen Anne Ave N & W Howe St","latitude":"47.6357346","longitude":"-122.356865","route_ids":["100028"]},"4500":{"stop_name":"Queen Anne Ave N & W Crockett St","latitude":"47.636879","longitude":"-122.357056","route_ids":["100028"]},"5330":{"stop_name":"N 85th St & Greenwood Ave N","latitude":"47.6905289","longitude":"-122.354935","route_ids":["100225"]},"5350":{"stop_name":"N 85th St & Fremont Ave N","latitude":"47.690506","longitude":"-122.349609","route_ids":["100225"]},"5370":{"stop_name":"N 85th St & Aurora Ave N","latitude":"47.6904907","longitude":"-122.344734","route_ids":["100225"]},"5380":{"stop_name":"N 85th St & Stone Ave N","latitude":"47.6904716","longitude":"-122.341507","route_ids":["100225"]},"5400":{"stop_name":"N 85th St & Wallingford Ave N","latitude":"47.6904449","longitude":"-122.336601","route_ids":["100225"]},"5402":{"stop_name":"NE 42nd St & 8th Ave NE","latitude":"47.657589","longitude":"-122.320366","route_ids":["100193","100184"]},"5420":{"stop_name":"N 85th St & Wallingford Ave N","latitude":"47.6905785","longitude":"-122.336769","route_ids":["100225"]},"5440":{"stop_name":"N 85th St & Stone Ave N","latitude":"47.690609","longitude":"-122.341194","route_ids":["100225"]},"5450":{"stop_name":"N 85th St & Aurora Ave N","latitude":"47.6906242","longitude":"-122.344162","route_ids":["100225"]},"5470":{"stop_name":"N 85th St & Fremont Ave N","latitude":"47.6906471","longitude":"-122.350266","route_ids":["100225"]},"5486":{"stop_name":"Greenwood Ave N & N Greenwood Dr","latitude":"47.7471123","longitude":"-122.355576","route_ids":["100196"]},"5487":{"stop_name":"Carlyle Hall Rd N & Dayton Ave N","latitude":"47.7487526","longitude":"-122.353638","route_ids":["100196"]},"5488":{"stop_name":"Carlyle Hall Rd N & Dayton Ave N","latitude":"47.7500114","longitude":"-122.355179","route_ids":["100196"]},"5489":{"stop_name":"Greenwood Ave N & N Greenwood Dr","latitude":"47.7467041","longitude":"-122.355782","route_ids":["100196"]},"5493":{"stop_name":"Shoreline Community College","latitude":"47.7471504","longitude":"-122.35865","route_ids":["100195","100202","100196"]},"5502":{"stop_name":"N Innis Arden Way & Greenwood Ave N","latitude":"47.7452812","longitude":"-122.356026","route_ids":["100195","100202","100196"]},"5550":{"stop_name":"Greenwood Ave N & N 145th St","latitude":"47.7337799","longitude":"-122.355675","route_ids":["100202"]},"5560":{"stop_name":"Greenwood Ave N & N 143rd St","latitude":"47.7320366","longitude":"-122.355659","route_ids":["100202"]},"5580":{"stop_name":"Greenwood Ave N & N 137th St","latitude":"47.728447","longitude":"-122.355644","route_ids":["100202"]},"5590":{"stop_name":"Greenwood Ave N & N 134th St","latitude":"47.7264252","longitude":"-122.355659","route_ids":["100202"]},"6070":{"stop_name":"Aurora Ave N & Lynn St","latitude":"47.6389084","longitude":"-122.345596","route_ids":["102615"]},"6071":{"stop_name":"Seacrest Marina & Harbor Ave SW","latitude":"47.589325","longitude":"-122.380608","route_ids":["100481","100272"]},"6100":{"stop_name":"Aurora Ave N & Galer St","latitude":"47.6321678","longitude":"-122.343666","route_ids":["102615"]},"6176":{"stop_name":"7th Ave N & Thomas St","latitude":"47.6210556","longitude":"-122.343842","route_ids":["102615"]},"6190":{"stop_name":"7th Ave & Blanchard St","latitude":"47.6163635","longitude":"-122.339813","route_ids":["100252"]},"6220":{"stop_name":"7th Ave & Blanchard St","latitude":"47.6168785","longitude":"-122.340385","route_ids":["100252"]},"6236":{"stop_name":"7th Ave N & Denny Way","latitude":"47.6190987","longitude":"-122.343575","route_ids":["102615"]},"6237":{"stop_name":"7th Ave N & Harrison St","latitude":"47.6218948","longitude":"-122.343506","route_ids":["102615"]},"6240":{"stop_name":"Dexter Ave N & Denny Way","latitude":"47.6189423","longitude":"-122.3423","route_ids":["100252"]},"6300":{"stop_name":"Aurora Ave N & Galer St","latitude":"47.6325722","longitude":"-122.343323","route_ids":["102615"]},"6320":{"stop_name":"Aurora Ave N & Lynn St","latitude":"47.6388741","longitude":"-122.3452","route_ids":["102615"]},"6820":{"stop_name":"Greenwood Ave N & N 130th St","latitude":"47.723671","longitude":"-122.355453","route_ids":["100202"]},"6840":{"stop_name":"Greenwood Ave N & N 134th St","latitude":"47.7266502","longitude":"-122.355438","route_ids":["100202"]},"6850":{"stop_name":"Greenwood Ave N & N 137th St","latitude":"47.7289734","longitude":"-122.355453","route_ids":["100202"]},"6870":{"stop_name":"Greenwood Ave N & N 143rd St","latitude":"47.7321358","longitude":"-122.355453","route_ids":["100202"]},"6880":{"stop_name":"Greenwood Ave N & N 145th St","latitude":"47.7335243","longitude":"-122.355469","route_ids":["100202"]},"6940":{"stop_name":"N Innis Arden Way & Greenwood Ave N","latitude":"47.7460976","longitude":"-122.357193","route_ids":["100195","100202"]},"6950":{"stop_name":"Aurora Ave N & N 145th St","latitude":"47.7335701","longitude":"-122.345268","route_ids":["102615"]},"6990":{"stop_name":"Aurora Ave N & N 135th St","latitude":"47.726429","longitude":"-122.3451","route_ids":["102615"]},"7000":{"stop_name":"Aurora Ave N & N 130th St","latitude":"47.7229614","longitude":"-122.345078","route_ids":["102615"]},"7010":{"stop_name":"Aurora Ave N & N 125th St","latitude":"47.719902","longitude":"-122.345047","route_ids":["102615"]},"7040":{"stop_name":"Aurora Ave N & N 115th St","latitude":"47.7119751","longitude":"-122.34491","route_ids":["102615"]},"7080":{"stop_name":"Aurora Ave N & N 105th St","latitude":"47.7046356","longitude":"-122.344856","route_ids":["102615"]},"7100":{"stop_name":"Aurora Ave N & N 100th St","latitude":"47.701088","longitude":"-122.34481","route_ids":["102615"]},"7120":{"stop_name":"Aurora Ave N & N 95th St","latitude":"47.6974945","longitude":"-122.344704","route_ids":["102615"]},"7140":{"stop_name":"Aurora Ave N & N 90th St","latitude":"47.6939621","longitude":"-122.344734","route_ids":["102615"]},"7160":{"stop_name":"Aurora Ave N & N 85th St","latitude":"47.6898766","longitude":"-122.344681","route_ids":["102615"]},"7180":{"stop_name":"Aurora Ave N & N 80th St","latitude":"47.6866722","longitude":"-122.344666","route_ids":["102615"]},"7200":{"stop_name":"Aurora Ave N & N 76th St","latitude":"47.6841507","longitude":"-122.34465","route_ids":["102615"]},"7210":{"stop_name":"Aurora Ave N & N 65th St","latitude":"47.6760826","longitude":"-122.346947","route_ids":["102615"]},"7350":{"stop_name":"Stone Way N & N 45th St","latitude":"47.6612206","longitude":"-122.342262","route_ids":["100252"]},"7360":{"stop_name":"Stone Way N & N 43rd St","latitude":"47.6589622","longitude":"-122.342369","route_ids":["100252"]},"7380":{"stop_name":"Stone Way N & N 40th St","latitude":"47.6551437","longitude":"-122.34256","route_ids":["100252"]},"7382":{"stop_name":"Stone Way N & N 38th St","latitude":"47.6528664","longitude":"-122.342667","route_ids":["100252"]},"7430":{"stop_name":"Wall St & 5th Ave","latitude":"47.6175041","longitude":"-122.345268","route_ids":["100031","100101","102615","100030"]},"7498":{"stop_name":"Stone Way N & N 38th St","latitude":"47.6529388","longitude":"-122.342468","route_ids":["100252"]},"7500":{"stop_name":"Stone Way N & N 40th St","latitude":"47.655159","longitude":"-122.342354","route_ids":["100252"]},"7520":{"stop_name":"Stone Way N & N 42nd St","latitude":"47.6582642","longitude":"-122.342209","route_ids":["100252"]},"7530":{"stop_name":"Stone Way N & N Allen Pl","latitude":"47.6605759","longitude":"-122.342079","route_ids":["100252"]},"7630":{"stop_name":"Woodland Pl N & N 65th St","latitude":"47.6761627","longitude":"-122.347031","route_ids":["102615"]},"7670":{"stop_name":"Linden Ave N & N 72nd St","latitude":"47.6812248","longitude":"-122.346809","route_ids":["102615"]},"7690":{"stop_name":"Aurora Ave N & N 76th St","latitude":"47.6837234","longitude":"-122.344322","route_ids":["102615"]},"7710":{"stop_name":"Aurora Ave N & N 80th St","latitude":"47.68713","longitude":"-122.344337","route_ids":["102615"]},"7730":{"stop_name":"Aurora Ave N & N 85th St","latitude":"47.691082","longitude":"-122.34436","route_ids":["102615"]},"7750":{"stop_name":"Aurora Ave N & N 91st St","latitude":"47.6946907","longitude":"-122.344406","route_ids":["102615"]},"7770":{"stop_name":"Aurora Ave N & N 95th St","latitude":"47.6981506","longitude":"-122.344513","route_ids":["102615"]},"7790":{"stop_name":"Aurora Ave N & N 100th St","latitude":"47.7016754","longitude":"-122.34449","route_ids":["102615"]},"7810":{"stop_name":"Aurora Ave N & N Northgate Way","latitude":"47.7053528","longitude":"-122.344543","route_ids":["102615"]},"7850":{"stop_name":"Aurora Ave N & N 115th St","latitude":"47.7127342","longitude":"-122.344719","route_ids":["102615"]},"7880":{"stop_name":"Aurora Ave N & N 125th St","latitude":"47.7194672","longitude":"-122.344841","route_ids":["102615"]},"7900":{"stop_name":"Aurora Ave N & N 130th St","latitude":"47.7237396","longitude":"-122.344879","route_ids":["102615"]},"7912":{"stop_name":"Aurora Ave N & N 135th St","latitude":"47.7272987","longitude":"-122.344925","route_ids":["102615"]},"7950":{"stop_name":"62nd Ave S & S Prentice St","latitude":"47.5083122","longitude":"-122.256004","route_ids":["100263"]},"7960":{"stop_name":"S Prentice St & 64th Ave S","latitude":"47.5081215","longitude":"-122.253754","route_ids":["100263"]},"7970":{"stop_name":"64th Ave S & S Ryan St","latitude":"47.5096588","longitude":"-122.253441","route_ids":["100263"]},"7980":{"stop_name":"64th Ave S & S Cooper St","latitude":"47.5116005","longitude":"-122.253426","route_ids":["100263"]},"8000":{"stop_name":"Waters Ave S & S Norfolk St","latitude":"47.5136909","longitude":"-122.254097","route_ids":["100263"]},"8010":{"stop_name":"Waters Ave S & S Pilgrim St","latitude":"47.5156059","longitude":"-122.25666","route_ids":["100263"]},"8030":{"stop_name":"Waters Ave S & S Carver St","latitude":"47.5181046","longitude":"-122.259903","route_ids":["100263"]},"8040":{"stop_name":"57th Ave S & Waters Ave S","latitude":"47.5195274","longitude":"-122.261482","route_ids":["100263"]},"8050":{"stop_name":"Rainier Ave S & Seward Park Ave S","latitude":"47.5200996","longitude":"-122.263481","route_ids":["100263"]},"8070":{"stop_name":"Rainier Ave S & 52nd Ave S","latitude":"47.5199165","longitude":"-122.267807","route_ids":["100263"]},"8080":{"stop_name":"Rainier Ave S & S Fisher Pl","latitude":"47.521328","longitude":"-122.269897","route_ids":["100263","100005","100006"]},"8090":{"stop_name":"Rainier Ave S & S Henderson St","latitude":"47.5228729","longitude":"-122.26989","route_ids":["100263"]},"8100":{"stop_name":"Rainier Ave S & Cloverdale Pl S","latitude":"47.5259705","longitude":"-122.26989","route_ids":["100263"]},"8110":{"stop_name":"Rainier Ave S & S Rose St","latitude":"47.5293808","longitude":"-122.269897","route_ids":["100263"]},"8140":{"stop_name":"Rainier Ave S & S Holden St","latitude":"47.5339088","longitude":"-122.26989","route_ids":["100263"]},"8160":{"stop_name":"Rainier Ave S & S Othello St","latitude":"47.5373726","longitude":"-122.270271","route_ids":["100263"]},"8175":{"stop_name":"Rainier Ave S & S Frontenac St","latitude":"47.5400429","longitude":"-122.270996","route_ids":["100263"]},"8190":{"stop_name":"Rainier Ave S & S Holly St","latitude":"47.5427284","longitude":"-122.272881","route_ids":["100263"]},"8210":{"stop_name":"Rainier Ave S & S Graham St","latitude":"47.5459175","longitude":"-122.275703","route_ids":["100263"]},"8231":{"stop_name":"Rainier Ave S & S Kenny St","latitude":"47.5492249","longitude":"-122.276947","route_ids":["100263"]},"8250":{"stop_name":"Rainier Ave S & S Orcas St","latitude":"47.5514755","longitude":"-122.277718","route_ids":["100263"]},"8270":{"stop_name":"Rainier Ave S & S Brandon St","latitude":"47.5535469","longitude":"-122.279793","route_ids":["100263"]},"8285":{"stop_name":"Rainier Ave S & 39th Ave S","latitude":"47.5561714","longitude":"-122.283653","route_ids":["100263"]},"8300":{"stop_name":"Rainier Ave S & S Edmunds St","latitude":"47.5589104","longitude":"-122.285484","route_ids":["100263"]},"8310":{"stop_name":"Rainier Ave S & S Alaska St","latitude":"47.5610237","longitude":"-122.287125","route_ids":["100230","100263"]},"8330":{"stop_name":"Rainier Ave S & S Genesee St","latitude":"47.5645103","longitude":"-122.288193","route_ids":["100263"]},"8350":{"stop_name":"Rainier Ave S & S Andover St","latitude":"47.5685463","longitude":"-122.289574","route_ids":["100263"]},"8360":{"stop_name":"Rainier Ave S & 33rd Ave S","latitude":"47.5701485","longitude":"-122.291336","route_ids":["100263"]},"8380":{"stop_name":"Rainier Ave S & S Walden St","latitude":"47.5728989","longitude":"-122.293892","route_ids":["100263"]},"8400":{"stop_name":"Rainier Ave S & S Mount Baker Blvd","latitude":"47.5758095","longitude":"-122.296089","route_ids":["100263"]},"8401":{"stop_name":"Rainier Ave S & Mount Baker Transit Center - Bay 1","latitude":"47.577507","longitude":"-122.297401","route_ids":["100005","100263"]},"8402":{"stop_name":"Mount Baker Transit Center - Bay 2","latitude":"47.5775909","longitude":"-122.297127","route_ids":["100275","100228"]},"8403":{"stop_name":"Mount Baker Transit Center - Bay 3","latitude":"47.5776825","longitude":"-122.297165","route_ids":["100039"]},"8429":{"stop_name":"Rainier Ave S & S Bayview St","latitude":"47.5811958","longitude":"-122.300201","route_ids":["100005","100263","100228"]},"8440":{"stop_name":"Rainier Ave S & S Walker St","latitude":"47.583931","longitude":"-122.302299","route_ids":["100005","100263","100228","100219"]},"8450":{"stop_name":"Rainier Ave S & S Plum St","latitude":"47.585743","longitude":"-122.30368","route_ids":["100005","100263"]},"8460":{"stop_name":"Rainier Ave S & S Grand St","latitude":"47.5871124","longitude":"-122.30471","route_ids":["100005","100263"]},"8485":{"stop_name":"Rainier Ave S & I-90","latitude":"47.5894661","longitude":"-122.306526","route_ids":["100005","100263"]},"8494":{"stop_name":"Rainier Ave S & S Charles St","latitude":"47.5944443","longitude":"-122.310318","route_ids":["100005","100240","100263","100104"]},"8510":{"stop_name":"Rainier Ave S & S Dearborn St","latitude":"47.5961304","longitude":"-122.311607","route_ids":["100005","100263"]},"8530":{"stop_name":"S Jackson St & Boren Ave S","latitude":"47.5992737","longitude":"-122.315155","route_ids":["100005","100039","100263"]},"8541":{"stop_name":"S Jackson St & 12th Ave S","latitude":"47.5991287","longitude":"-122.317642","route_ids":["100005","100039","100263"]},"8550":{"stop_name":"Rainier Ave S & S King St","latitude":"47.5984726","longitude":"-122.313629","route_ids":["100005","100263"]},"8590":{"stop_name":"Rainier Ave S & S Charles St","latitude":"47.5937271","longitude":"-122.309998","route_ids":["100005","100240","100263","100104"]},"8608":{"stop_name":"Rainier Ave S & I-90","latitude":"47.5890274","longitude":"-122.306412","route_ids":["100005","100263"]},"8620":{"stop_name":"Rainier Ave S & S State St","latitude":"47.5875244","longitude":"-122.305252","route_ids":["100005","100263"]},"8641":{"stop_name":"Rainier Ave S & S Walker St","latitude":"47.5837326","longitude":"-122.302368","route_ids":["100005","100263","100228"]},"8660":{"stop_name":"Rainier Ave S & S Bayview St","latitude":"47.5807915","longitude":"-122.300133","route_ids":["100005","100263","100228"]},"8672":{"stop_name":"Martin L King Jr Way S & S Bayview St","latitude":"47.5815468","longitude":"-122.297058","route_ids":["100275"]},"8681":{"stop_name":"Rainier Ave S & S Forest St - Bay 4","latitude":"47.576828","longitude":"-122.297112","route_ids":["100005","100263"]},"8690":{"stop_name":"Rainier Ave S & Martin Luther King Junior Way S","latitude":"47.5757294","longitude":"-122.296249","route_ids":["100263"]},"8710":{"stop_name":"Rainier Ave S & S Walden St","latitude":"47.5726891","longitude":"-122.293945","route_ids":["100263"]},"8730":{"stop_name":"Rainier Ave S & Letitia Ave S","latitude":"47.5699501","longitude":"-122.291237","route_ids":["100263"]},"8740":{"stop_name":"Rainier Ave S & S Andover St","latitude":"47.5680389","longitude":"-122.289421","route_ids":["100263"]},"8760":{"stop_name":"Rainier Ave S & S Genesee St","latitude":"47.5639381","longitude":"-122.288246","route_ids":["100263","100230"]},"8780":{"stop_name":"Rainier Ave S & S Alaska St","latitude":"47.5605469","longitude":"-122.28698","route_ids":["100263"]},"8790":{"stop_name":"Rainier Ave S & S Edmunds St","latitude":"47.5586967","longitude":"-122.285583","route_ids":["100263"]},"8810":{"stop_name":"Rainier Ave S & S Dawson St","latitude":"47.5553284","longitude":"-122.282974","route_ids":["100263"]},"8820":{"stop_name":"Rainier Ave S & S Brandon St","latitude":"47.5534325","longitude":"-122.279884","route_ids":["100263"]},"8840":{"stop_name":"Rainier Ave S & S Orcas St","latitude":"47.5509262","longitude":"-122.277634","route_ids":["100263"]},"8850":{"stop_name":"Rainier Ave S & S Kenny St","latitude":"47.5486946","longitude":"-122.277061","route_ids":["100263"]},"8870":{"stop_name":"Rainier Ave S & S Graham St","latitude":"47.5456696","longitude":"-122.275665","route_ids":["100263"]},"8890":{"stop_name":"Rainier Ave S & S Holly St","latitude":"47.5422211","longitude":"-122.272743","route_ids":["100263"]},"8905":{"stop_name":"Rainier Ave S & S Frontenac St","latitude":"47.5393143","longitude":"-122.270927","route_ids":["100263"]},"8920":{"stop_name":"Rainier Ave S & S Othello St","latitude":"47.5366249","longitude":"-122.270294","route_ids":["100263"]},"8940":{"stop_name":"Rainier Ave S & S Holden St","latitude":"47.5333481","longitude":"-122.270088","route_ids":["100263"]},"8970":{"stop_name":"Rainier Ave S & S Rose St","latitude":"47.5294037","longitude":"-122.270103","route_ids":["100263"]},"8990":{"stop_name":"Rainier Ave S & S Cloverdale St","latitude":"47.5259247","longitude":"-122.270088","route_ids":["100263"]},"9000":{"stop_name":"Rainier Ave S & S Henderson St","latitude":"47.5229797","longitude":"-122.270088","route_ids":["100005","100006","100263"]},"9010":{"stop_name":"Rainier Ave S & 51st Ave S","latitude":"47.5204582","longitude":"-122.270065","route_ids":["100005","100006","100263"]},"9030":{"stop_name":"Rainier Ave S & 54th Ave S","latitude":"47.5198135","longitude":"-122.264709","route_ids":["100263"]},"9050":{"stop_name":"Waters Ave S & S Fletcher St","latitude":"47.519062","longitude":"-122.261421","route_ids":["100263"]},"9060":{"stop_name":"Waters Ave S & S Carver St","latitude":"47.517746","longitude":"-122.259682","route_ids":["100263"]},"9080":{"stop_name":"Waters Ave S & 61st Ave S","latitude":"47.5157661","longitude":"-122.257126","route_ids":["100263"]},"9090":{"stop_name":"Waters Ave S & 62nd Ave S","latitude":"47.5147896","longitude":"-122.255966","route_ids":["100263"]},"9110":{"stop_name":"62nd Ave S & S Cooper St","latitude":"47.5114174","longitude":"-122.255981","route_ids":["100263"]},"9132":{"stop_name":"University Way NE & NE 50th St","latitude":"47.664135","longitude":"-122.313187","route_ids":["100225","100269","100267","102732"]},"9133":{"stop_name":"University Way NE & NE 45th St","latitude":"47.662281","longitude":"-122.313217","route_ids":["100269","100267","102732"]},"9134":{"stop_name":"U District Station - Bay 4","latitude":"47.6600723","longitude":"-122.313255","route_ids":["100269","100267","102732"]},"9135":{"stop_name":"University Way NE & NE 52nd St","latitude":"47.6660233","longitude":"-122.313164","route_ids":["100228"]},"9138":{"stop_name":"NE Campus Pkwy & 12th Ave NE - Bay 4","latitude":"47.6562996","longitude":"-122.315338","route_ids":["100264","100447"]},"9140":{"stop_name":"University Bridge & NE 40th St","latitude":"47.6557655","longitude":"-122.318504","route_ids":["100264","100447"]},"9141":{"stop_name":"Eastlake Ave E & Harvard Ave E","latitude":"47.6503105","longitude":"-122.322372","route_ids":["100264"]},"9142":{"stop_name":"University Way NE & NE 41st St","latitude":"47.6569481","longitude":"-122.313339","route_ids":["100269","100267","102732"]},"9144":{"stop_name":"NE Campus Pkwy & University Way NE","latitude":"47.6562805","longitude":"-122.313187","route_ids":["100146"]},"9147":{"stop_name":"Brooklyn Ave NE & NE Campus Pkwy - Bay 3","latitude":"47.656498","longitude":"-122.314308","route_ids":["100259"]},"9150":{"stop_name":"Eastlake Ave E & E Allison St","latitude":"47.648613","longitude":"-122.323685","route_ids":["100264"]},"9170":{"stop_name":"Eastlake Ave E & E Hamlin St","latitude":"47.6457291","longitude":"-122.32592","route_ids":["100264"]},"9190":{"stop_name":"Eastlake Ave E & E Louisa St","latitude":"47.6418648","longitude":"-122.325989","route_ids":["100264"]},"9200":{"stop_name":"Eastlake Ave E & E Lynn St","latitude":"47.6394691","longitude":"-122.326004","route_ids":["100264"]},"9220":{"stop_name":"Eastlake Ave E & E Newton St","latitude":"47.6365471","longitude":"-122.32592","route_ids":["100264"]},"9240":{"stop_name":"Eastlake Ave E & E Garfield St","latitude":"47.6333923","longitude":"-122.325836","route_ids":["100264"]},"9460":{"stop_name":"Eastlake Ave E & E Garfield St","latitude":"47.6341095","longitude":"-122.325386","route_ids":["100264"]},"9480":{"stop_name":"Eastlake Ave E & E Howe St","latitude":"47.6361618","longitude":"-122.325577","route_ids":["100264"]},"9500":{"stop_name":"Eastlake Ave E & E Lynn St","latitude":"47.6399307","longitude":"-122.325783","route_ids":["100264"]},"9510":{"stop_name":"Eastlake Ave E & E Louisa St","latitude":"47.6422806","longitude":"-122.325783","route_ids":["100264"]},"9530":{"stop_name":"Eastlake Ave E & E Hamlin St","latitude":"47.6460381","longitude":"-122.325447","route_ids":["100264"]},"9550":{"stop_name":"Eastlake Ave E & E Allison St","latitude":"47.6489449","longitude":"-122.323204","route_ids":["100264"]},"9560":{"stop_name":"Eastlake Ave E & Harvard Ave E","latitude":"47.6501503","longitude":"-122.322273","route_ids":["100264"]},"9561":{"stop_name":"NE Pacific St & University Way NE","latitude":"47.6533928","longitude":"-122.313065","route_ids":["100267"]},"9575":{"stop_name":"NE Campus Pkwy & University Way NE - Bay 2","latitude":"47.6559219","longitude":"-122.313492","route_ids":["100254","100146"]},"9580":{"stop_name":"NE Campus Pkwy & Brooklyn Ave NE - Bay 1","latitude":"47.6559219","longitude":"-122.31398","route_ids":["102730","102732","100264","100447"]},"9581":{"stop_name":"University Way NE & NE 41st St","latitude":"47.6573868","longitude":"-122.313133","route_ids":["100225","102732","100267"]},"9582":{"stop_name":"U District Station - Bay 5","latitude":"47.6596832","longitude":"-122.313065","route_ids":["100225","102732","100267"]},"9584":{"stop_name":"University Way NE & NE 45th St","latitude":"47.6620674","longitude":"-122.313011","route_ids":["100225","102732","100267"]},"9586":{"stop_name":"NE 50th St & University Way NE","latitude":"47.6649742","longitude":"-122.313721","route_ids":["100228"]},"9587":{"stop_name":"U District Station - Bay 1","latitude":"47.6598778","longitude":"-122.314117","route_ids":["100214","102730","100264","100224","100447"]},"9589":{"stop_name":"Roosevelt Way NE & NE 50th St","latitude":"47.6645966","longitude":"-122.317505","route_ids":["100259"]},"9605":{"stop_name":"Roosevelt Way NE & NE 45th St","latitude":"47.6609535","longitude":"-122.317818","route_ids":["100259","100254","100193","100184"]},"9610":{"stop_name":"Roosevelt Way NE & NE 42nd St","latitude":"47.6584549","longitude":"-122.317879","route_ids":["100254","100193","100184"]},"9612":{"stop_name":"NE 42nd St & 8th Ave NE","latitude":"47.6574516","longitude":"-122.319389","route_ids":["100193","100184"]},"9630":{"stop_name":"11th Ave NE & NE 42nd St","latitude":"47.6585732","longitude":"-122.316551","route_ids":["100259","100193","100184"]},"9650":{"stop_name":"11th Ave NE & NE 45th St","latitude":"47.6619453","longitude":"-122.316452","route_ids":["100259","100214","100228"]},"9660":{"stop_name":"11th Ave NE & NE 47th St","latitude":"47.6633682","longitude":"-122.316254","route_ids":["100259"]},"9670":{"stop_name":"NE 125th St & Lake City Way NE","latitude":"47.7192078","longitude":"-122.294708","route_ids":["100195","100254","100269"]},"9680":{"stop_name":"NE 125th St & 33rd Ave NE","latitude":"47.7191963","longitude":"-122.292862","route_ids":["100195","100254","100269"]},"9690":{"stop_name":"NE 125th St & 35th Ave NE","latitude":"47.7191849","longitude":"-122.291084","route_ids":["100254","100269"]},"9710":{"stop_name":"NE 125th St & 39th Ave NE","latitude":"47.7191467","longitude":"-122.2864","route_ids":["100269"]},"9720":{"stop_name":"Sand Point Way NE & Bartlett Ave NE","latitude":"47.7168655","longitude":"-122.283722","route_ids":["100269"]},"9730":{"stop_name":"Sand Point Way NE & NE 120th St","latitude":"47.7160225","longitude":"-122.283218","route_ids":["100269"]},"9750":{"stop_name":"Sand Point Way NE & NE 115th St","latitude":"47.7123718","longitude":"-122.281921","route_ids":["100269"]},"9770":{"stop_name":"Sand Point Way NE & NE 110th St","latitude":"47.708622","longitude":"-122.280144","route_ids":["100269"]},"9790":{"stop_name":"Sand Point Way NE & NE 106th St","latitude":"47.7050934","longitude":"-122.278427","route_ids":["100269"]},"9800":{"stop_name":"Sand Point Way NE & NE 103rd St","latitude":"47.7026825","longitude":"-122.277771","route_ids":["100269"]},"9820":{"stop_name":"Sand Point Way NE & NE 97th St","latitude":"47.6996536","longitude":"-122.277824","route_ids":["100269"]},"9830":{"stop_name":"Sand Point Way NE & NE 95th St","latitude":"47.6970482","longitude":"-122.277527","route_ids":["100269"]},"9840":{"stop_name":"Sand Point Way NE & NE 93rd St","latitude":"47.6958771","longitude":"-122.276596","route_ids":["100269"]},"9850":{"stop_name":"Sand Point Way NE & Mathews Ave NE","latitude":"47.6937714","longitude":"-122.274055","route_ids":["100269"]},"9860":{"stop_name":"Sand Point Way NE & Inverness Dr NE","latitude":"47.6928368","longitude":"-122.271362","route_ids":["100269"]},"9895":{"stop_name":"Sand Point Way NE & NE 77th St","latitude":"47.6844711","longitude":"-122.264397","route_ids":["100269","100252"]},"9900":{"stop_name":"Sand Point Way NE & NE 74th St","latitude":"47.6818199","longitude":"-122.263763","route_ids":["100269","100252"]},"9901":{"stop_name":"62nd Ave NE & NE 65th St","latitude":"47.6786041","longitude":"-122.262329","route_ids":["100252"]},"9912":{"stop_name":"Sand Point Way NE & NE 70th St","latitude":"47.6790886","longitude":"-122.26371","route_ids":["100269","100252"]},"9920":{"stop_name":"Sand Point Way NE & NE 65th St","latitude":"47.6758881","longitude":"-122.263634","route_ids":["100269","100252"]},"9930":{"stop_name":"Sand Point Way NE & NE 62nd St","latitude":"47.6736374","longitude":"-122.266251","route_ids":["100269","102732"]},"9950":{"stop_name":"Sand Point Way NE & NE 58th St","latitude":"47.6705856","longitude":"-122.270515","route_ids":["100269","102732"]},"9970":{"stop_name":"Sand Point Way NE & Ivanhoe Pl NE","latitude":"47.6683846","longitude":"-122.274597","route_ids":["100269","102732"]},"9972":{"stop_name":"Sand Point Way NE & Princeton Ave NE","latitude":"47.6684837","longitude":"-122.276482","route_ids":["100269"]},"9974":{"stop_name":"Sand Point Way NE & NE 52nd St","latitude":"47.6666412","longitude":"-122.281242","route_ids":["100269"]},"9976":{"stop_name":"Sand Point Way NE & NE 50th St","latitude":"47.6647072","longitude":"-122.283249","route_ids":["100269"]},"9978":{"stop_name":"Sand Point Way NE & 40th Ave NE","latitude":"47.6627426","longitude":"-122.285202","route_ids":["100254","100259","100269","100225"]},"9980":{"stop_name":"NE 55th St & Princeton Ave NE","latitude":"47.669342","longitude":"-122.276146","route_ids":["102732"]},"9990":{"stop_name":"NE 55th St & 45th Ave NE","latitude":"47.6690254","longitude":"-122.279846","route_ids":["102732"]},"10005":{"stop_name":"40th Ave NE & NE 51st St","latitude":"47.6658859","longitude":"-122.284897","route_ids":["100254"]},"10010":{"stop_name":"NE 55th St & 39th Ave NE","latitude":"47.6685791","longitude":"-122.285667","route_ids":["100254","102732"]},"10020":{"stop_name":"NE 55th St & 37th Ave NE","latitude":"47.6685791","longitude":"-122.2883","route_ids":["100254","102732"]},"10030":{"stop_name":"NE 55th St & 35th Ave NE","latitude":"47.6685791","longitude":"-122.290512","route_ids":["102732"]},"10040":{"stop_name":"NE 55th St & 33rd Ave NE","latitude":"47.6685829","longitude":"-122.293015","route_ids":["102732"]},"10050":{"stop_name":"NE 55th St & 30th Ave NE","latitude":"47.6685905","longitude":"-122.295448","route_ids":["102732"]},"10060":{"stop_name":"NE 55th St & 27th Ave NE","latitude":"47.6685944","longitude":"-122.298859","route_ids":["102732"]},"10070":{"stop_name":"NE 55th St & 25th Ave NE","latitude":"47.6685944","longitude":"-122.30098","route_ids":["102732"]},"10083":{"stop_name":"Ravenna Ave NE & Ravenna Pl NE","latitude":"47.6684799","longitude":"-122.30378","route_ids":["102732"]},"10100":{"stop_name":"NE Ravenna Blvd & Park Rd NE","latitude":"47.6695518","longitude":"-122.305405","route_ids":["102732"]},"10110":{"stop_name":"20th Ave NE & NE 55th St","latitude":"47.6682739","longitude":"-122.30658","route_ids":["102732"]},"10120":{"stop_name":"20th Ave NE & NE 52nd St","latitude":"47.6662827","longitude":"-122.306602","route_ids":["102732"]},"10130":{"stop_name":"NE 50th St & 19th Ave NE","latitude":"47.6649284","longitude":"-122.307114","route_ids":["102732"]},"10145":{"stop_name":"NE 50th St & 16th Ave NE","latitude":"47.664959","longitude":"-122.311172","route_ids":["102732"]},"10170":{"stop_name":"Fairview Ave E & E Nelson Pl","latitude":"47.6300545","longitude":"-122.329338","route_ids":["100264"]},"10180":{"stop_name":"Fairview Ave N & Yale Ave N","latitude":"47.6283493","longitude":"-122.33152","route_ids":["100264"]},"10190":{"stop_name":"Fairview Ave N & Aloha St","latitude":"47.6270752","longitude":"-122.333122","route_ids":["100264"]},"10210":{"stop_name":"Fairview Ave N & Mercer St","latitude":"47.6237869","longitude":"-122.334457","route_ids":["100264"]},"10225":{"stop_name":"Fairview Ave N & Thomas St","latitude":"47.6205864","longitude":"-122.334435","route_ids":["100264"]},"10240":{"stop_name":"Boren Ave & Virginia St","latitude":"47.6175003","longitude":"-122.333817","route_ids":["100264"]},"10280":{"stop_name":"Fairview Ave & Denny Way","latitude":"47.6188736","longitude":"-122.334198","route_ids":["100264"]},"10305":{"stop_name":"Fairview Ave N & Harrison St","latitude":"47.6222763","longitude":"-122.334229","route_ids":["100264"]},"10325":{"stop_name":"Fairview Ave N & Valley St","latitude":"47.6266136","longitude":"-122.33345","route_ids":["100264","102576"]},"10328":{"stop_name":"Valley St & Fairview Ave N","latitude":"47.6260338","longitude":"-122.334106","route_ids":["102576"]},"10340":{"stop_name":"Fairview Ave N & Yale Ave N","latitude":"47.6288757","longitude":"-122.330597","route_ids":["100264"]},"10350":{"stop_name":"Fairview Ave E & Yale Ave N","latitude":"47.6299744","longitude":"-122.329185","route_ids":["100264"]},"10370":{"stop_name":"NE 50th St & University Way NE","latitude":"47.6648293","longitude":"-122.31266","route_ids":["102732"]},"10380":{"stop_name":"NE 50th St & 16th Ave NE","latitude":"47.664814","longitude":"-122.310432","route_ids":["102732"]},"10400":{"stop_name":"20th Ave NE & NE 50th St","latitude":"47.6650276","longitude":"-122.306404","route_ids":["102732"]},"10410":{"stop_name":"20th Ave NE & NE 52nd St","latitude":"47.6666412","longitude":"-122.306404","route_ids":["102732"]},"10420":{"stop_name":"20th Ave NE & NE 54th St","latitude":"47.6681633","longitude":"-122.306389","route_ids":["102732"]},"10430":{"stop_name":"NE Ravenna Blvd & 21st Ave NE","latitude":"47.669239","longitude":"-122.305595","route_ids":["102732"]},"10445":{"stop_name":"Ravenna Ave NE & NE 54th St","latitude":"47.6680031","longitude":"-122.303864","route_ids":["102732"]},"10460":{"stop_name":"NE 55th St & 25th Ave NE","latitude":"47.6684494","longitude":"-122.300217","route_ids":["102732"]},"10470":{"stop_name":"NE 55th St & 27th Ave NE","latitude":"47.6684494","longitude":"-122.298218","route_ids":["102732"]},"10480":{"stop_name":"NE 55th St & 30th Ave NE","latitude":"47.6684494","longitude":"-122.295074","route_ids":["102732"]},"10490":{"stop_name":"NE 55th St & 33rd Ave NE","latitude":"47.6684494","longitude":"-122.29232","route_ids":["102732"]},"10500":{"stop_name":"NE 55th St & 35th Ave NE","latitude":"47.6684456","longitude":"-122.29039","route_ids":["102732"]},"10510":{"stop_name":"NE 55th St & 36th Ave NE","latitude":"47.6684456","longitude":"-122.288803","route_ids":["100254","102732"]},"10513":{"stop_name":"40th Ave NE & NE 46th St","latitude":"47.6619339","longitude":"-122.284668","route_ids":["100254"]},"10515":{"stop_name":"40th Ave NE & NE 50th St","latitude":"47.6650925","longitude":"-122.284698","route_ids":["100254"]},"10525":{"stop_name":"NE 55th St & 40th Ave NE","latitude":"47.6684418","longitude":"-122.285049","route_ids":["100254","102732"]},"10550":{"stop_name":"NE 55th St & 45th Ave NE","latitude":"47.6690025","longitude":"-122.279121","route_ids":["102732"]},"10560":{"stop_name":"NE 55th St & Princeton Ave NE","latitude":"47.6691818","longitude":"-122.275909","route_ids":["102732"]},"10561":{"stop_name":"Sand Point Way NE & 38th Ave NE","latitude":"47.6615753","longitude":"-122.286484","route_ids":["100269"]},"10562":{"stop_name":"Sand Point Way NE & 40th Ave NE","latitude":"47.6634483","longitude":"-122.284119","route_ids":["100269"]},"10564":{"stop_name":"Sand Point Way NE & NE 50th St","latitude":"47.6646538","longitude":"-122.282867","route_ids":["100269"]},"10566":{"stop_name":"Sand Point Way NE & NE 52nd St","latitude":"47.6670799","longitude":"-122.28035","route_ids":["100269"]},"10568":{"stop_name":"Sand Point Way NE & Princeton Ave NE","latitude":"47.6681938","longitude":"-122.275978","route_ids":["100269"]},"10580":{"stop_name":"Sand Point Way NE & NE Windermere Rd","latitude":"47.6702614","longitude":"-122.270485","route_ids":["100269","102732"]},"10600":{"stop_name":"Sand Point Way NE & NE 61st St","latitude":"47.6729889","longitude":"-122.266663","route_ids":["100269","102732"]},"10620":{"stop_name":"Sand Point Way NE & NE 65th St","latitude":"47.6759758","longitude":"-122.263428","route_ids":["100269","100252"]},"10630":{"stop_name":"Sand Point Way NE & NE 70th St","latitude":"47.6797371","longitude":"-122.263519","route_ids":["100269","100252"]},"10640":{"stop_name":"Sand Point Way NE & NE 74th St","latitude":"47.6817589","longitude":"-122.263565","route_ids":["100269","100252"]},"10650":{"stop_name":"Sand Point Way NE & NE 77th St","latitude":"47.6850052","longitude":"-122.264465","route_ids":["100269","100252"]},"10653":{"stop_name":"NOAA & Building 1","latitude":"47.6865425","longitude":"-122.257362","route_ids":["100252"]},"10654":{"stop_name":"NE NOAA Dr","latitude":"47.6861496","longitude":"-122.260803","route_ids":["100252"]},"10657":{"stop_name":"NE NOAA Dr & Guard Shack","latitude":"47.6862411","longitude":"-122.259926","route_ids":["100252"]},"10658":{"stop_name":"NOAA & Building 3","latitude":"47.6860123","longitude":"-122.255531","route_ids":["100252"]},"10680":{"stop_name":"Sand Point Way NE & Inverness Dr NE","latitude":"47.6928253","longitude":"-122.270943","route_ids":["100269"]},"10700":{"stop_name":"Sand Point Way NE & Matthews Pl NE","latitude":"47.6945229","longitude":"-122.275177","route_ids":["100269"]},"10710":{"stop_name":"Sand Point Way NE & NE 93rd St","latitude":"47.6961441","longitude":"-122.276566","route_ids":["100269"]},"10720":{"stop_name":"Sand Point Way NE & NE 95th St","latitude":"47.6972351","longitude":"-122.277443","route_ids":["100269"]},"10730":{"stop_name":"Sand Point Way NE & NE 97th St","latitude":"47.6990929","longitude":"-122.277634","route_ids":["100269"]},"10750":{"stop_name":"Sand Point Way NE & NE 103rd St","latitude":"47.7030869","longitude":"-122.277565","route_ids":["100269"]},"10760":{"stop_name":"Sand Point Way NE & NE 106th St","latitude":"47.7053642","longitude":"-122.278374","route_ids":["100269"]},"10780":{"stop_name":"Sand Point Way NE & NE 110th St","latitude":"47.7092285","longitude":"-122.280212","route_ids":["100269"]},"10800":{"stop_name":"Sand Point Way NE & NE 115th St","latitude":"47.7126198","longitude":"-122.281837","route_ids":["100269"]},"10820":{"stop_name":"Sand Point Way NE & NE 120th St","latitude":"47.7160149","longitude":"-122.283005","route_ids":["100269"]},"10830":{"stop_name":"Sand Point Way NE & NE 123rd St","latitude":"47.717598","longitude":"-122.283928","route_ids":["100269"]},"10840":{"stop_name":"Sand Point Way NE & NE 125th St","latitude":"47.7192917","longitude":"-122.28669","route_ids":["100269"]},"10860":{"stop_name":"NE 125th St & 35th Ave NE","latitude":"47.7193222","longitude":"-122.291412","route_ids":["100254","100269"]},"10870":{"stop_name":"NE 125th St & 33rd Ave NE","latitude":"47.7193375","longitude":"-122.293205","route_ids":["100254","100269"]},"10910":{"stop_name":"12th Ave NE & NE 47th St","latitude":"47.662281","longitude":"-122.315475","route_ids":["100214","100228"]},"10911":{"stop_name":"U District Station - Bay 3","latitude":"47.6612053","longitude":"-122.313477","route_ids":["100193","100184","100214","102730","100264","100224","100447","100228"]},"10912":{"stop_name":"15th Ave NE & NE 43rd St","latitude":"47.6593704","longitude":"-122.312096","route_ids":["100214","102730","100264","100224","100162","100511","100447","100228"]},"10914":{"stop_name":"15th Ave NE & NE Campus Pkwy","latitude":"47.6564217","longitude":"-122.312164","route_ids":["100214","102730","100264","100224","100162","100511","100447","100228"]},"10915":{"stop_name":"Harvard Ave E & Eastlake Ave E","latitude":"47.6500931","longitude":"-122.321999","route_ids":["100447"]},"10916":{"stop_name":"Harvard Ave E & Eastlake Ave E","latitude":"47.649704","longitude":"-122.322205","route_ids":["100447"]},"10917":{"stop_name":"15th Ave NE & NE 40th St","latitude":"47.6548195","longitude":"-122.31221","route_ids":["100254","100146","102730","102732","100224","100162","100511","100228"]},"10920":{"stop_name":"Harvard Ave E & E Shelby St","latitude":"47.647007","longitude":"-122.322205","route_ids":["100447"]},"10940":{"stop_name":"10th Ave E & E Roanoke St","latitude":"47.6429367","longitude":"-122.32016","route_ids":["100447"]},"10950":{"stop_name":"10th Ave E & E Miller St","latitude":"47.6411629","longitude":"-122.32016","route_ids":["100447"]},"10970":{"stop_name":"10th Ave E & E Newton St","latitude":"47.6370277","longitude":"-122.320183","route_ids":["100447"]},"10990":{"stop_name":"10th Ave E & E Galer St","latitude":"47.6321259","longitude":"-122.320305","route_ids":["100447"]},"11010":{"stop_name":"10th Ave E & E Prospect St","latitude":"47.6287384","longitude":"-122.32032","route_ids":["100447"]},"11030":{"stop_name":"E Roy St & Broadway  E","latitude":"47.6251907","longitude":"-122.320816","route_ids":["100447"]},"11040":{"stop_name":"Broadway  E & E Republican St","latitude":"47.6228943","longitude":"-122.321014","route_ids":["100249","100447"]},"11050":{"stop_name":"Broadway  E & E Thomas St","latitude":"47.6208153","longitude":"-122.320992","route_ids":["100249","100447"]},"11060":{"stop_name":"Broadway & E Denny Way","latitude":"47.6185379","longitude":"-122.320946","route_ids":["100249","100447"]},"11070":{"stop_name":"Broadway & E Pine St","latitude":"47.6161919","longitude":"-122.320923","route_ids":["100249","100447"]},"11080":{"stop_name":"E Pine St & Broadway","latitude":"47.615303","longitude":"-122.321495","route_ids":["100447"]},"11090":{"stop_name":"E Pine St & Belmont Ave","latitude":"47.6152878","longitude":"-122.325127","route_ids":["100447"]},"11100":{"stop_name":"E Pine St & Bellevue Ave","latitude":"47.6152992","longitude":"-122.327271","route_ids":["100002","100447"]},"11130":{"stop_name":"Pike St & Convention Pl","latitude":"47.6123695","longitude":"-122.33136","route_ids":["100045","100239","100003"]},"11132":{"stop_name":"Pike St & Boren Ave","latitude":"47.6135788","longitude":"-122.328445","route_ids":["100002"]},"11140":{"stop_name":"E Pine St & Summit Ave","latitude":"47.6151581","longitude":"-122.324638","route_ids":["100447"]},"11150":{"stop_name":"E Pine St & Harvard Ave","latitude":"47.6151619","longitude":"-122.321617","route_ids":["100447"]},"11175":{"stop_name":"Broadway & E Howell St","latitude":"47.6181564","longitude":"-122.320747","route_ids":["102638"]},"11180":{"stop_name":"Broadway  E & E John St","latitude":"47.6201553","longitude":"-122.320786","route_ids":["100249","100447"]},"11190":{"stop_name":"Broadway  E & E Harrison St","latitude":"47.6221962","longitude":"-122.320816","route_ids":["100249","100447"]},"11191":{"stop_name":"10th Ave E & E Mercer St","latitude":"47.623951","longitude":"-122.319992","route_ids":["100249"]},"11200":{"stop_name":"Broadway  E & E Mercer St","latitude":"47.6246109","longitude":"-122.320839","route_ids":["100447"]},"11230":{"stop_name":"10th Ave E & E Prospect St","latitude":"47.6288605","longitude":"-122.320114","route_ids":["100447"]},"11250":{"stop_name":"10th Ave E & E Galer St","latitude":"47.6322136","longitude":"-122.320099","route_ids":["100447"]},"11270":{"stop_name":"10th Ave E & E Howe St","latitude":"47.6361618","longitude":"-122.319992","route_ids":["100447"]},"11290":{"stop_name":"10th Ave E & E Miller St","latitude":"47.641571","longitude":"-122.319969","route_ids":["100447"]},"11300":{"stop_name":"E Roanoke St & Broadway  E","latitude":"47.643261","longitude":"-122.320747","route_ids":["100447"]},"11330":{"stop_name":"Harvard Ave E & E Shelby St","latitude":"47.647171","longitude":"-122.321999","route_ids":["100447"]},"11352":{"stop_name":"15th Ave NE & NE 42nd St","latitude":"47.6586685","longitude":"-122.311905","route_ids":["100162","100214","100511","102730","100264","100224","100447","100228"]},"11356":{"stop_name":"NE 45th St & 17th Ave NE","latitude":"47.6613274","longitude":"-122.31012","route_ids":["100193","100184"]},"11357":{"stop_name":"NE 45th St & 20th Ave NE","latitude":"47.6613274","longitude":"-122.306923","route_ids":["100193","100184"]},"11358":{"stop_name":"U District Station - Bay 2","latitude":"47.6613388","longitude":"-122.313614","route_ids":["100193","100184","100228"]},"11370":{"stop_name":"15th Ave E & E Galer St","latitude":"47.6324997","longitude":"-122.312607","route_ids":["100002"]},"11390":{"stop_name":"15th Ave E & E Prospect St","latitude":"47.628479","longitude":"-122.312668","route_ids":["100002"]},"11400":{"stop_name":"15th Ave E & E Aloha St","latitude":"47.6266823","longitude":"-122.312668","route_ids":["100002"]},"11410":{"stop_name":"15th Ave E & E Roy St","latitude":"47.6250267","longitude":"-122.312698","route_ids":["100002"]},"11420":{"stop_name":"15th Ave E & E Mercer St","latitude":"47.62397","longitude":"-122.312714","route_ids":["100002"]},"11430":{"stop_name":"15th Ave E & E Republican St","latitude":"47.6228943","longitude":"-122.312737","route_ids":["100002"]},"11570":{"stop_name":"15th Ave E & E Harrison St","latitude":"47.62257","longitude":"-122.312538","route_ids":["100002"]},"11590":{"stop_name":"15th Ave E & E Roy St","latitude":"47.6254234","longitude":"-122.312492","route_ids":["100002"]},"11600":{"stop_name":"15th Ave E & E Aloha St","latitude":"47.6270981","longitude":"-122.312469","route_ids":["100002"]},"11610":{"stop_name":"15th Ave E & E Prospect St","latitude":"47.6289024","longitude":"-122.312454","route_ids":["100002"]},"11620":{"stop_name":"15th Ave E & E Highland Dr","latitude":"47.6308327","longitude":"-122.312424","route_ids":["100002"]},"11630":{"stop_name":"Grandview Pl E & E Galer St","latitude":"47.6325226","longitude":"-122.311821","route_ids":["100002"]},"11640":{"stop_name":"Grandview Pl E & E Garfield St","latitude":"47.634079","longitude":"-122.311798","route_ids":["100002"]},"11680":{"stop_name":"Mount Rainier Dr S & S Hanford St","latitude":"47.5756569","longitude":"-122.284843","route_ids":["100039"]},"11690":{"stop_name":"Mount Rainier Dr S & S Ridgeway Pl","latitude":"47.5765381","longitude":"-122.28624","route_ids":["100039"]},"11700":{"stop_name":"S Mcclellan St & Lake Park Dr S","latitude":"47.5784073","longitude":"-122.288605","route_ids":["100039"]},"11720":{"stop_name":"S Mcclellan St & 31st Ave S","latitude":"47.5784111","longitude":"-122.292671","route_ids":["100039"]},"11730":{"stop_name":"31st Ave S & S Lander St","latitude":"47.5798607","longitude":"-122.292908","route_ids":["100039"]},"11750":{"stop_name":"31st Ave S & S College St","latitude":"47.5827065","longitude":"-122.292892","route_ids":["100039"]},"11770":{"stop_name":"31st Ave S & S Plum St","latitude":"47.5850983","longitude":"-122.292908","route_ids":["100039"]},"11790":{"stop_name":"31st Ave S & S Massachusetts St","latitude":"47.5881615","longitude":"-122.292442","route_ids":["100039"]},"11800":{"stop_name":"31st Ave S & S Day St","latitude":"47.5905342","longitude":"-122.292305","route_ids":["100039"]},"11820":{"stop_name":"31st Ave S & S Norman St","latitude":"47.5935059","longitude":"-122.292656","route_ids":["100039"]},"11840":{"stop_name":"31st Ave S & S Dearborn St","latitude":"47.5959206","longitude":"-122.292603","route_ids":["100039"]},"11860":{"stop_name":"31st Ave S & S King St","latitude":"47.597908","longitude":"-122.292519","route_ids":["100039"]},"11870":{"stop_name":"S Jackson St & 30th Ave S","latitude":"47.5992508","longitude":"-122.29364","route_ids":["100039"]},"11880":{"stop_name":"S Jackson St & 28th Ave S","latitude":"47.5992851","longitude":"-122.296112","route_ids":["100039"]},"11890":{"stop_name":"S Jackson St & Martin L King Jr Way S","latitude":"47.5993042","longitude":"-122.297752","route_ids":["100039","100275"]},"11910":{"stop_name":"S Jackson St & 23rd Ave S","latitude":"47.5993462","longitude":"-122.302032","route_ids":["100039"]},"11920":{"stop_name":"S Jackson St & 20th Pl S","latitude":"47.5993347","longitude":"-122.304642","route_ids":["100039"]},"11940":{"stop_name":"S Jackson St & 18th Ave S","latitude":"47.5993042","longitude":"-122.309349","route_ids":["100039"]},"11960":{"stop_name":"S Jackson St & Rainier Ave S","latitude":"47.5991402","longitude":"-122.313576","route_ids":["100039"]},"11980":{"stop_name":"S Jackson St & 18th Ave S","latitude":"47.5991669","longitude":"-122.309738","route_ids":["100039"]},"11990":{"stop_name":"S Jackson St & 20th Ave S","latitude":"47.5991898","longitude":"-122.305992","route_ids":["100039"]},"12010":{"stop_name":"S Jackson St & 23rd Ave S","latitude":"47.5992203","longitude":"-122.30143","route_ids":["100275","100039"]},"12030":{"stop_name":"S Jackson St & 28th Ave S","latitude":"47.5991478","longitude":"-122.295952","route_ids":["100039"]},"12040":{"stop_name":"S Jackson St & 30th Ave S","latitude":"47.5991173","longitude":"-122.29393","route_ids":["100039"]},"12050":{"stop_name":"31st Ave S & S King St","latitude":"47.597744","longitude":"-122.29274","route_ids":["100039"]},"12070":{"stop_name":"31st Ave S & S Dearborn St","latitude":"47.5955124","longitude":"-122.292809","route_ids":["100039"]},"12080":{"stop_name":"31st Ave S & S Norman St","latitude":"47.5930748","longitude":"-122.292877","route_ids":["100039"]},"12090":{"stop_name":"31st Ave S & S Irving St","latitude":"47.5909729","longitude":"-122.292496","route_ids":["100039"]},"12110":{"stop_name":"31st Ave S & S Massachusetts St","latitude":"47.5878716","longitude":"-122.292648","route_ids":["100039"]},"12130":{"stop_name":"31st Ave S & S Plum St","latitude":"47.5849571","longitude":"-122.293098","route_ids":["100039"]},"12140":{"stop_name":"31st Ave S & S Walker St","latitude":"47.5834236","longitude":"-122.293106","route_ids":["100039"]},"12160":{"stop_name":"31st Ave S & S Lander St","latitude":"47.579422","longitude":"-122.293098","route_ids":["100039"]},"12170":{"stop_name":"S Mcclellan St & 31st Ave S","latitude":"47.5782738","longitude":"-122.292587","route_ids":["100039"]},"12190":{"stop_name":"S Mcclellan St & S Mount Baker Blvd","latitude":"47.5782738","longitude":"-122.288712","route_ids":["100039"]},"12200":{"stop_name":"Mount Rainier Dr S & 37th Pl S","latitude":"47.5767555","longitude":"-122.286827","route_ids":["100039"]},"12322":{"stop_name":"E Madison St & 28th Ave E","latitude":"47.6231651","longitude":"-122.296799","route_ids":["100275"]},"12340":{"stop_name":"E Madison St & 25th Ave E","latitude":"47.6208687","longitude":"-122.300186","route_ids":["100275"]},"12353":{"stop_name":"E Madison St & 19th Ave","latitude":"47.6166191","longitude":"-122.307877","route_ids":["100018"]},"12354":{"stop_name":"E Madison St & 17th Ave","latitude":"47.6155205","longitude":"-122.310516","route_ids":["100018"]},"12355":{"stop_name":"E Madison St & 15th Ave","latitude":"47.6143608","longitude":"-122.313301","route_ids":["100018"]},"12371":{"stop_name":"E Madison St & 15th Ave","latitude":"47.6145515","longitude":"-122.312454","route_ids":["100018"]},"12372":{"stop_name":"E Madison St & 17th Ave","latitude":"47.6154594","longitude":"-122.310265","route_ids":["100018"]},"12373":{"stop_name":"E Madison St & 18th Ave","latitude":"47.6161728","longitude":"-122.308563","route_ids":["100018"]},"12378":{"stop_name":"E Madison St & 25th Ave E","latitude":"47.6210938","longitude":"-122.299561","route_ids":["100275"]},"12380":{"stop_name":"E Madison St & 27th Ave E","latitude":"47.6224899","longitude":"-122.297508","route_ids":["100275"]},"12481":{"stop_name":"Martin L King Jr Way S & S Judkins St","latitude":"47.59161","longitude":"-122.297646","route_ids":["100275","100219"]},"12484":{"stop_name":"Martin L King Jr Way S & S Hill St","latitude":"47.584259","longitude":"-122.298248","route_ids":["100275","100219"]},"12485":{"stop_name":"S Walker St & 25th Ave S","latitude":"47.5837135","longitude":"-122.299629","route_ids":["100219"]},"12486":{"stop_name":"Martin L King Jr Way S & S Bayview St","latitude":"47.5810013","longitude":"-122.296921","route_ids":["100275"]},"12487":{"stop_name":"Martin L King Jr Way S & S Massachusetts St","latitude":"47.5879974","longitude":"-122.298195","route_ids":["100275","100219"]},"12496":{"stop_name":"S Plum St & 25th Ave S","latitude":"47.5854111","longitude":"-122.300079","route_ids":["100219"]},"12497":{"stop_name":"Martin L King Jr Way S & S Massachusetts St","latitude":"47.5886765","longitude":"-122.297852","route_ids":["100275","100219"]},"12500":{"stop_name":"26th Ave S & S Norman St","latitude":"47.5931625","longitude":"-122.298958","route_ids":["100219"]},"12520":{"stop_name":"S Dearborn St & 26th Ave S","latitude":"47.5956268","longitude":"-122.299423","route_ids":["100219"]},"12532":{"stop_name":"23rd Ave S & S Lane St","latitude":"47.5967102","longitude":"-122.302124","route_ids":["100228","100219"]},"12550":{"stop_name":"23rd Ave S & S Jackson St","latitude":"47.5996971","longitude":"-122.302124","route_ids":["100228","100275","100219"]},"12560":{"stop_name":"23rd Ave & E Yesler Way","latitude":"47.6018944","longitude":"-122.302299","route_ids":["100228","100219"]},"12600":{"stop_name":"23rd Ave & E Jefferson St","latitude":"47.6058998","longitude":"-122.302887","route_ids":["100219","100228"]},"12630":{"stop_name":"23rd Ave S & E Yesler Way","latitude":"47.6012573","longitude":"-122.302361","route_ids":["100275","100219","100228"]},"12640":{"stop_name":"23rd Ave S & S Jackson St","latitude":"47.5989761","longitude":"-122.302315","route_ids":["100219","100228"]},"12660":{"stop_name":"S Dearborn St & 24th Ave S","latitude":"47.5955009","longitude":"-122.301636","route_ids":["100219"]},"12670":{"stop_name":"24th Ave S & S Norman St","latitude":"47.5927429","longitude":"-122.301292","route_ids":["100219"]},"12690":{"stop_name":"34th Ave & E Union St","latitude":"47.6125031","longitude":"-122.289421","route_ids":["100173"]},"12700":{"stop_name":"34th Ave & E Marion St","latitude":"47.6105156","longitude":"-122.289474","route_ids":["100173"]},"12712":{"stop_name":"34th Ave & E Cherry St","latitude":"47.6080475","longitude":"-122.289528","route_ids":["100173"]},"12720":{"stop_name":"E Cherry St & 32nd Ave","latitude":"47.6080322","longitude":"-122.292","route_ids":["100173"]},"12740":{"stop_name":"E Cherry St & Martin L King Jr Way","latitude":"47.6080627","longitude":"-122.296158","route_ids":["100173"]},"12760":{"stop_name":"E Cherry St & 24th Ave","latitude":"47.6080704","longitude":"-122.300499","route_ids":["100173"]},"12770":{"stop_name":"23rd Ave & E Cherry St","latitude":"47.6077118","longitude":"-122.302879","route_ids":["100228","100173"]},"12780":{"stop_name":"E Jefferson St & 23rd Ave","latitude":"47.6062393","longitude":"-122.303215","route_ids":["100219","100173"]},"12790":{"stop_name":"E Jefferson St & 21st Ave","latitude":"47.6062355","longitude":"-122.305351","route_ids":["100219","100173"]},"12805":{"stop_name":"E Jefferson St & 18th Ave","latitude":"47.6062508","longitude":"-122.309669","route_ids":["100219","100173"]},"12820":{"stop_name":"E Jefferson St & 15th Ave","latitude":"47.606266","longitude":"-122.313126","route_ids":["100219","100173"]},"12840":{"stop_name":"E Jefferson St & 12th Ave","latitude":"47.606266","longitude":"-122.317108","route_ids":["100219","100173"]},"12860":{"stop_name":"Jefferson St & Broadway","latitude":"47.6061554","longitude":"-122.321167","route_ids":["100219","100173"]},"12880":{"stop_name":"Jefferson St & 9th Ave","latitude":"47.6049347","longitude":"-122.324089","route_ids":["100219","100173"]},"12890":{"stop_name":"James St & 8th Ave","latitude":"47.6051865","longitude":"-122.325813","route_ids":["100219","100173"]},"12900":{"stop_name":"James St & 8th Ave","latitude":"47.6051636","longitude":"-122.3255","route_ids":["100219","100173"]},"12910":{"stop_name":"9th Ave & Jefferson St","latitude":"47.6048737","longitude":"-122.324242","route_ids":["100249","100219","100173"]},"12930":{"stop_name":"E Jefferson St & Broadway","latitude":"47.606144","longitude":"-122.320229","route_ids":["100219","100173"]},"12950":{"stop_name":"E Jefferson St & 12th Ave","latitude":"47.6061249","longitude":"-122.316376","route_ids":["100219","100173"]},"12960":{"stop_name":"E Jefferson St & 14th Ave","latitude":"47.6061249","longitude":"-122.31356","route_ids":["100219","100173"]},"12980":{"stop_name":"E Jefferson St & 17th Ave","latitude":"47.6061096","longitude":"-122.309929","route_ids":["100219","100173"]},"12991":{"stop_name":"E Jefferson St & 20th Ave","latitude":"47.6060982","longitude":"-122.305962","route_ids":["100219","100173"]},"13005":{"stop_name":"21st Ave & E James St","latitude":"47.607399","longitude":"-122.304924","route_ids":["100173"]},"13020":{"stop_name":"E Cherry St & 23rd Ave","latitude":"47.6079369","longitude":"-122.30233","route_ids":["100173"]},"13030":{"stop_name":"E Cherry St & 25th Ave","latitude":"47.6079369","longitude":"-122.299774","route_ids":["100173"]},"13040":{"stop_name":"E Cherry St & Martin L King Jr Way","latitude":"47.6079292","longitude":"-122.296364","route_ids":["100173"]},"13060":{"stop_name":"E Cherry St & 31st Ave","latitude":"47.6079063","longitude":"-122.292305","route_ids":["100173"]},"13070":{"stop_name":"E Cherry St & 33rd Ave","latitude":"47.6078835","longitude":"-122.290253","route_ids":["100173"]},"13080":{"stop_name":"34th Ave & E Columbia St","latitude":"47.6094742","longitude":"-122.289299","route_ids":["100173"]},"13090":{"stop_name":"E Spring St & 34th Ave","latitude":"47.6117134","longitude":"-122.29023","route_ids":["100173"]},"13190":{"stop_name":"Interlaken Turnback Loop & 19th Ave E","latitude":"47.6325073","longitude":"-122.307373","route_ids":["100018"]},"13200":{"stop_name":"19th Ave E & E Galer St","latitude":"47.631897","longitude":"-122.307327","route_ids":["100018"]},"13210":{"stop_name":"19th Ave E & E Highland Dr","latitude":"47.6304359","longitude":"-122.307358","route_ids":["100018"]},"13220":{"stop_name":"19th Ave E & E Prospect St","latitude":"47.6284943","longitude":"-122.307373","route_ids":["100018"]},"13230":{"stop_name":"19th Ave E & E Aloha St","latitude":"47.6266518","longitude":"-122.307411","route_ids":["100018"]},"13240":{"stop_name":"19th Ave E & E Mercer St","latitude":"47.6241951","longitude":"-122.307396","route_ids":["100018"]},"13250":{"stop_name":"19th Ave E & E Harrison St","latitude":"47.6219025","longitude":"-122.307426","route_ids":["100018"]},"13260":{"stop_name":"19th Ave E & E John St","latitude":"47.6194572","longitude":"-122.307465","route_ids":["100018"]},"13270":{"stop_name":"19th Ave & E Denny Way","latitude":"47.6182632","longitude":"-122.307495","route_ids":["100018"]},"13277":{"stop_name":"E Madison St & 13th Ave","latitude":"47.6131248","longitude":"-122.316277","route_ids":["100018","100089"]},"13282":{"stop_name":"E Madison St & Broadway Ct","latitude":"47.6116257","longitude":"-122.319855","route_ids":["100018"]},"13283":{"stop_name":"Madison St & Summit Ave","latitude":"47.610424","longitude":"-122.322723","route_ids":["100249","100018"]},"13284":{"stop_name":"Madison St & Boren Ave","latitude":"47.609211","longitude":"-122.325638","route_ids":["100249","100018"]},"13285":{"stop_name":"Madison St & 9th Ave","latitude":"47.6083336","longitude":"-122.327736","route_ids":["100018"]},"13291":{"stop_name":"Madison St & Boren Ave","latitude":"47.6094246","longitude":"-122.324745","route_ids":["100249","100018"]},"13292":{"stop_name":"Madison St & Summit Ave","latitude":"47.6103477","longitude":"-122.322533","route_ids":["100249","100018"]},"13293":{"stop_name":"E Madison St & Broadway","latitude":"47.6112671","longitude":"-122.320335","route_ids":["100018"]},"13294":{"stop_name":"E Madison St & 14th Ave","latitude":"47.6137772","longitude":"-122.314308","route_ids":["100018"]},"13310":{"stop_name":"19th Ave E & E Denny Way","latitude":"47.6186981","longitude":"-122.307274","route_ids":["100018"]},"13320":{"stop_name":"19th Ave E & E John St","latitude":"47.619873","longitude":"-122.307259","route_ids":["100018"]},"13330":{"stop_name":"19th Ave E & E Thomas St","latitude":"47.6206818","longitude":"-122.307251","route_ids":["100018"]},"13340":{"stop_name":"19th Ave E & E Harrison St","latitude":"47.6218605","longitude":"-122.307236","route_ids":["100018"]},"13350":{"stop_name":"19th Ave E & E Republican St","latitude":"47.6234016","longitude":"-122.307205","route_ids":["100018"]},"13360":{"stop_name":"19th Ave E & E Roy St","latitude":"47.6254692","longitude":"-122.30722","route_ids":["100018"]},"13370":{"stop_name":"19th Ave E & E Aloha St","latitude":"47.6270447","longitude":"-122.30719","route_ids":["100018"]},"13380":{"stop_name":"19th Ave E & E Prospect St","latitude":"47.6288605","longitude":"-122.307167","route_ids":["100018"]},"13381":{"stop_name":"19th Ave E & E Highland Dr","latitude":"47.630806","longitude":"-122.307152","route_ids":["100018"]},"13441":{"stop_name":"Bellevue Ave & E Olive Way","latitude":"47.6167336","longitude":"-122.326889","route_ids":["100002"]},"13460":{"stop_name":"Bellevue Ave & E Olive St","latitude":"47.6165085","longitude":"-122.326691","route_ids":["100236","100002"]},"13585":{"stop_name":"15th Ave NW & NW 87th St","latitude":"47.6930084","longitude":"-122.37674","route_ids":["102574"]},"13600":{"stop_name":"15th Ave NW & NW 85th St","latitude":"47.6901588","longitude":"-122.376915","route_ids":["102581"]},"13620":{"stop_name":"15th Ave NW & NW 80th St","latitude":"47.6862793","longitude":"-122.3769","route_ids":["102581"]},"13640":{"stop_name":"15th Ave NW & NW 75th St","latitude":"47.682991","longitude":"-122.376892","route_ids":["102581"]},"13660":{"stop_name":"15th Ave NW & NW 70th St","latitude":"47.6788483","longitude":"-122.376877","route_ids":["102581"]},"13670":{"stop_name":"15th Ave NW & NW 65th St","latitude":"47.6760826","longitude":"-122.376686","route_ids":["102581"]},"13700":{"stop_name":"15th Ave NW & NW 60th St","latitude":"47.6724358","longitude":"-122.376312","route_ids":["102581"]},"13721":{"stop_name":"15th Ave NW & NW Market St","latitude":"47.6689072","longitude":"-122.376312","route_ids":["102581"]},"13760":{"stop_name":"15th Ave NW & NW Leary Way","latitude":"47.6631432","longitude":"-122.37648","route_ids":["102581"]},"13770":{"stop_name":"15th Ave W & W Emerson St","latitude":"47.6534729","longitude":"-122.376328","route_ids":["102581"]},"13775":{"stop_name":"W Emerson Pl & 21st Ave W","latitude":"47.6558075","longitude":"-122.38372","route_ids":["100184"]},"13800":{"stop_name":"15th Ave W & W Dravus St","latitude":"47.6480637","longitude":"-122.376877","route_ids":["102581","100193"]},"13810":{"stop_name":"15th Ave W & W Armour St","latitude":"47.644825","longitude":"-122.376328","route_ids":["102581","100193"]},"13830":{"stop_name":"15th Ave W & W Wheeler St","latitude":"47.6403198","longitude":"-122.376312","route_ids":["102581","100193"]},"13840":{"stop_name":"15th Ave W & W Armory Way","latitude":"47.6372871","longitude":"-122.376305","route_ids":["102581","100193"]},"13870":{"stop_name":"Elliott Ave W & W Galer St","latitude":"47.6318817","longitude":"-122.375305","route_ids":["100194","102581","100193"]},"13890":{"stop_name":"Elliott Ave W & W Prospect St","latitude":"47.6290588","longitude":"-122.371742","route_ids":["100194","102581","100193"]},"13910":{"stop_name":"W Mercer St & 3rd Ave W","latitude":"47.6245308","longitude":"-122.360809","route_ids":["102581","100193"]},"14038":{"stop_name":"W Mercer St & 3rd Ave W","latitude":"47.6246681","longitude":"-122.361153","route_ids":["100193","102581"]},"14070":{"stop_name":"Elliott Ave W & W Prospect St","latitude":"47.6290131","longitude":"-122.371414","route_ids":["100194","100193","102581"]},"14090":{"stop_name":"Elliott Ave W & W Galer St","latitude":"47.6320915","longitude":"-122.37529","route_ids":["100193","102581"]},"14110":{"stop_name":"15th Ave W & W Newton St","latitude":"47.6370888","longitude":"-122.376099","route_ids":["100193","102581"]},"14130":{"stop_name":"15th Ave W & W Wheeler St","latitude":"47.6409225","longitude":"-122.376114","route_ids":["100193","102581"]},"14150":{"stop_name":"15th Ave W & W Armour St","latitude":"47.6449356","longitude":"-122.376122","route_ids":["100193","102581"]},"14170":{"stop_name":"15th Ave W & W Dravus St","latitude":"47.6491623","longitude":"-122.376045","route_ids":["100193","102581"]},"14190":{"stop_name":"15th Ave W & W Emerson St","latitude":"47.6539421","longitude":"-122.376122","route_ids":["102581"]},"14195":{"stop_name":"W Emerson Pl & 21st Ave W","latitude":"47.6552963","longitude":"-122.382843","route_ids":["100184"]},"14200":{"stop_name":"15th Ave NW & NW Leary Way","latitude":"47.6634369","longitude":"-122.375977","route_ids":["102581"]},"14230":{"stop_name":"15th Ave NW & NW Market St","latitude":"47.6684799","longitude":"-122.376114","route_ids":["102581"]},"14250":{"stop_name":"15th Ave NW & NW 60th St","latitude":"47.6722946","longitude":"-122.376114","route_ids":["102581"]},"14280":{"stop_name":"15th Ave NW & NW 65th St","latitude":"47.6767349","longitude":"-122.376671","route_ids":["102581"]},"14300":{"stop_name":"15th Ave NW & NW 70th St","latitude":"47.6798744","longitude":"-122.376671","route_ids":["102581"]},"14320":{"stop_name":"15th Ave NW & NW 75th St","latitude":"47.6834221","longitude":"-122.376686","route_ids":["102581"]},"14340":{"stop_name":"15th Ave NW & NW 80th St","latitude":"47.68713","longitude":"-122.376701","route_ids":["102581"]},"14360":{"stop_name":"15th Ave NW & NW 85th St","latitude":"47.6909561","longitude":"-122.376709","route_ids":["102574","102581"]},"14960":{"stop_name":"Alki Ave SW & 61st Ave SW","latitude":"47.5789948","longitude":"-122.410797","route_ids":["100481","100230"]},"14961":{"stop_name":"61st Ave SW & SW Stevens St","latitude":"47.5775185","longitude":"-122.410797","route_ids":["100230"]},"14962":{"stop_name":"61st Ave SW & SW Admiral Way","latitude":"47.5760269","longitude":"-122.410835","route_ids":["100230"]},"14963":{"stop_name":"SW Admiral Way & 60th Ave SW","latitude":"47.5758171","longitude":"-122.409019","route_ids":["100230"]},"14970":{"stop_name":"SW Admiral Way & 59th Ave SW","latitude":"47.5760765","longitude":"-122.407791","route_ids":["100230"]},"14980":{"stop_name":"SW Admiral Way & 57th Ave SW","latitude":"47.577034","longitude":"-122.405182","route_ids":["100230"]},