{"0":{"stop_name":"2nd Ave & Bell St","latitude":"47.6137047","longitude":"-122.345253","region":979},"1":{"stop_name":"2nd Ave & Lenora St","latitude":"47.6120987","longitude":"-122.342522","region":1046},"2":{"stop_name":"2nd Ave & Stewart St","latitude":"47.6106148","longitude":"-122.340248","region":1046},"3":{"stop_name":"2nd Ave & Pike St","latitude":"47.6086464","longitude":"-122.338432","region":1046},"4":{"stop_name":"2nd Ave & Seneca St","latitude":"47.6062126","longitude":"-122.336205","region":1045},"5":{"stop_name":"2nd Ave & Marion St","latitude":"47.6044655","longitude":"-122.334625","region":1045},"6":{"stop_name":"2nd Ave & Cherry St","latitude":"47.6030197","longitude":"-122.333282","region":1112},"7":{"stop_name":"2nd Ave & James St","latitude":"47.602478","longitude":"-122.332809","region":1112},"8":{"stop_name":"2nd Ave Ext S & Yesler Way","latitude":"47.6012535","longitude":"-122.331688","region":1112},"9":{"stop_name":"2nd Ave Ext S & S Jackson St","latitude":"47.5992661","longitude":"-122.329857","region":1112},"10":{"stop_name":"3rd Ave & Bell St","latitude":"47.6142998","longitude":"-122.344269","region":1046},"11":{"stop_name":"3rd Ave & Virginia St","latitude":"47.6124382","longitude":"-122.34111","region":1046},"12":{"stop_name":"3rd Ave & Pine St","latitude":"47.6107903","longitude":"-122.338875","region":1046},"13":{"stop_name":"3rd Ave & Pike St","latitude":"47.6097908","longitude":"-122.337959","region":1046},"14":{"stop_name":"3rd Ave & Pike St","latitude":"47.6090698","longitude":"-122.337288","region":1046},"15":{"stop_name":"3rd Ave & Union St","latitude":"47.6082535","longitude":"-122.336548","region":1046},"16":{"stop_name":"3rd Ave & Seneca St","latitude":"47.6064415","longitude":"-122.3349","region":1046},"17":{"stop_name":"3rd Ave & Marion St","latitude":"47.6049957","longitude":"-122.333572","region":1112},"18":{"stop_name":"3rd Ave & Columbia St","latitude":"47.6042633","longitude":"-122.332901","region":1112},"19":{"stop_name":"3rd Ave & Cherry St","latitude":"47.6035805","longitude":"-122.332275","region":1112},"20":{"stop_name":"3rd Ave & James St","latitude":"47.6028175","longitude":"-122.331581","region":1112},"21":{"stop_name":"S Washington St & 3rd Ave S","latitude":"47.6009483","longitude":"-122.330841","region":1112},"22":{"stop_name":"3rd Ave S & S Main St","latitude":"47.6002388","longitude":"-122.330376","region":1112},"23":{"stop_name":"3rd Ave & James St","latitude":"47.6026421","longitude":"-122.331184","region":1112},"24":{"stop_name":"3rd Ave & Columbia St","latitude":"47.6040955","longitude":"-122.332504","region":1112},"25":{"stop_name":"3rd Ave & Marion St","latitude":"47.604805","longitude":"-122.33316","region":1112},"26":{"stop_name":"3rd Ave & Madison St","latitude":"47.6055412","longitude":"-122.333832","region":1112},"27":{"stop_name":"3rd Ave & Seneca St","latitude":"47.6070518","longitude":"-122.335213","region":1046},"28":{"stop_name":"3rd Ave & Union St","latitude":"47.6086884","longitude":"-122.3367","region":1046},"29":{"stop_name":"3rd Ave & Pike St","latitude":"47.609642","longitude":"-122.337585","region":1046},"30":{"stop_name":"3rd Ave & Pine St","latitude":"47.6111374","longitude":"-122.338951","region":1046},"31":{"stop_name":"3rd Ave & Virginia St","latitude":"47.6129951","longitude":"-122.341743","region":1046},"32":{"stop_name":"3rd Ave & Bell St","latitude":"47.6151199","longitude":"-122.345337","region":979},"33":{"stop_name":"4th Ave S & S Jackson St","latitude":"47.5998268","longitude":"-122.328972","region":1112},"34":{"stop_name":"4th Ave S & S Jackson St","latitude":"47.5988121","longitude":"-122.328903","region":1112},"35":{"stop_name":"S Washington St & 4th Ave S","latitude":"47.6008034","longitude":"-122.329048","region":1112},"36":{"stop_name":"4th Ave S & S Washington St","latitude":"47.6013107","longitude":"-122.328903","region":1112},"37":{"stop_name":"4th Ave & James St","latitude":"47.6030121","longitude":"-122.329979","region":1112},"38":{"stop_name":"4th Ave & Cherry St","latitude":"47.6043205","longitude":"-122.331169","region":1112},"39":{"stop_name":"4th Ave & Madison St","latitude":"47.6060066","longitude":"-122.33271","region":1112},"40":{"stop_name":"4th Ave & Seneca St","latitude":"47.6074982","longitude":"-122.334076","region":1113},"41":{"stop_name":"4th Ave & Union St","latitude":"47.6091614","longitude":"-122.335609","region":1046},"42":{"stop_name":"4th Ave & Pike St","latitude":"47.6109505","longitude":"-122.33725","region":1046},"43":{"stop_name":"4th Ave & Stewart St","latitude":"47.6126671","longitude":"-122.339203","region":1046},"44":{"stop_name":"4th Ave & Lenora St","latitude":"47.614151","longitude":"-122.341728","region":1046},"45":{"stop_name":"5th Ave & Pine St","latitude":"47.6117249","longitude":"-122.336662","region":1046},"46":{"stop_name":"5th Ave & Seneca St","latitude":"47.6081772","longitude":"-122.333405","region":1113},"47":{"stop_name":"5th Ave & Spring St","latitude":"47.6069641","longitude":"-122.332291","region":1113},"48":{"stop_name":"5th Ave & Marion St","latitude":"47.6058311","longitude":"-122.331261","region":1112},"49":{"stop_name":"5th Ave & Jefferson St","latitude":"47.6030922","longitude":"-122.328766","region":1112},"50":{"stop_name":"5th Ave S & S Jackson St","latitude":"47.5998802","longitude":"-122.32756","region":1112},"51":{"stop_name":"5th Ave S & S Weller St","latitude":"47.5977402","longitude":"-122.327782","region":1112},"52":{"stop_name":"5th Ave & James St","latitude":"47.6035919","longitude":"-122.328972","region":1112},"53":{"stop_name":"Virginia St & 6th Ave","latitude":"47.614315","longitude":"-122.338287","region":1046},"54":{"stop_name":"Virginia St & 9th Ave","latitude":"47.6165466","longitude":"-122.335388","region":1046},"55":{"stop_name":"Stewart St & Yale Ave N","latitude":"47.6190186","longitude":"-122.33017","region":1114},"56":{"stop_name":"Stewart St & 9th Ave","latitude":"47.6157036","longitude":"-122.334457","region":1113},"57":{"stop_name":"Stewart St & 7th Ave","latitude":"47.61446","longitude":"-122.336075","region":1046},"58":{"stop_name":"Stewart St & 4th Ave","latitude":"47.6119919","longitude":"-122.339272","region":1046},"59":{"stop_name":"Howell St & 9th Ave","latitude":"47.6145401","longitude":"-122.333382","region":1113},"60":{"stop_name":"5th Ave & Marion St","latitude":"47.605751","longitude":"-122.330948","region":1112},"61":{"stop_name":"6th Ave & Union St","latitude":"47.6100922","longitude":"-122.333382","region":1113},"62":{"stop_name":"Pine St & 9th Ave","latitude":"47.6134148","longitude":"-122.332138","region":1113},"63":{"stop_name":"Howell St & Minor Ave","latitude":"47.6167107","longitude":"-122.330597","region":1114},"64":{"stop_name":"Olive Way & 6th Ave","latitude":"47.6130257","longitude":"-122.336334","region":1046},"65":{"stop_name":"Olive Way & 8th Ave","latitude":"47.6139374","longitude":"-122.33416","region":1113},"66":{"stop_name":"Olive Way & Terry Ave","latitude":"47.6148872","longitude":"-122.331894","region":1113},"67":{"stop_name":"Pine St & 9th Ave","latitude":"47.6133766","longitude":"-122.332603","region":1113},"68":{"stop_name":"Pine St & 5th Ave","latitude":"47.6117668","longitude":"-122.336456","region":1046},"69":{"stop_name":"Pine St & 4th Ave","latitude":"47.6111031","longitude":"-122.338028","region":1046},"70":{"stop_name":"Pike St & 4th Ave","latitude":"47.6100731","longitude":"-122.336838","region":1046},"71":{"stop_name":"Pike St & 6th Ave","latitude":"47.6110344","longitude":"-122.334526","region":1046},"72":{"stop_name":"Pike St & 7th Ave","latitude":"47.6118088","longitude":"-122.332687","region":1113},"73":{"stop_name":"Union St & 5th Ave","latitude":"47.6098289","longitude":"-122.334511","region":1046},"74":{"stop_name":"Union St & 4th Ave","latitude":"47.6090813","longitude":"-122.336288","region":1046},"75":{"stop_name":"Seneca St & 4th Ave","latitude":"47.6074219","longitude":"-122.33461","region":1046},"76":{"stop_name":"Seneca St & 6th Ave","latitude":"47.6087418","longitude":"-122.331482","region":1113},"77":{"stop_name":"Spring St & 4th Ave","latitude":"47.6068764","longitude":"-122.333206","region":1113},"78":{"stop_name":"Spring St & 6th Ave","latitude":"47.6078453","longitude":"-122.330856","region":1113},"79":{"stop_name":"Madison St & 8th Ave","latitude":"47.6080284","longitude":"-122.328079","region":1113},"80":{"stop_name":"Yesler Way & Prefontaine Pl S","latitude":"47.6016464","longitude":"-122.329582","region":1112},"81":{"stop_name":"Yesler Way & 6th Ave S","latitude":"47.6016388","longitude":"-122.32505","region":1112},"82":{"stop_name":"Yesler Way & 5th Ave","latitude":"47.6017799","longitude":"-122.327141","region":1112},"83":{"stop_name":"Yesler Way & 3rd Ave","latitude":"47.6017799","longitude":"-122.329803","region":1112},"84":{"stop_name":"Madison St & 5th Ave","latitude":"47.6066818","longitude":"-122.331688","region":1113},"85":{"stop_name":"S Washington St & 3rd Ave S","latitude":"47.6008034","longitude":"-122.329758","region":1112},"86":{"stop_name":"Madison St & 4th Ave","latitude":"47.6059837","longitude":"-122.333366","region":1112},"87":{"stop_name":"Madison St & 2nd Ave","latitude":"47.6053276","longitude":"-122.334923","region":1045},"88":{"stop_name":"S Jackson St & 5th Ave S","latitude":"47.5991287","longitude":"-122.328041","region":1112},"89":{"stop_name":"S Jackson St & Maynard Ave S","latitude":"47.5991173","longitude":"-122.32457","region":1112},"90":{"stop_name":"S Jackson St & 8th Ave S","latitude":"47.5991173","longitude":"-122.322044","region":1179},"91":{"stop_name":"S Jackson St & 8th Ave S","latitude":"47.5992661","longitude":"-122.322327","region":1179},"92":{"stop_name":"S Jackson St & Maynard Ave S","latitude":"47.5992622","longitude":"-122.32547","region":1112},"93":{"stop_name":"S Jackson St & 5th Ave S","latitude":"47.5992661","longitude":"-122.328384","region":1112},"94":{"stop_name":"James St & 5th Ave","latitude":"47.6038017","longitude":"-122.329094","region":1112},"95":{"stop_name":"S Jackson St & Occidental Ave Walk","latitude":"47.5992737","longitude":"-122.333282","region":1112},"96":{"stop_name":"Columbia St & Alaskan Way","latitude":"47.6024704","longitude":"-122.33712","region":1045},"97":{"stop_name":"Alaskan Way & Columbia St","latitude":"47.602356","longitude":"-122.337013","region":1045},"98":{"stop_name":"James St & 3rd Ave","latitude":"47.602932","longitude":"-122.330826","region":1112},"99":{"stop_name":"Alaskan Way S & S Jackson St","latitude":"47.5996933","longitude":"-122.335815","region":1045},"100":{"stop_name":"Alaskan Way S & S Jackson St","latitude":"47.5987091","longitude":"-122.336014","region":1045},"101":{"stop_name":"James St & 5th Ave","latitude":"47.6037712","longitude":"-122.328773","region":1112},"102":{"stop_name":"Marion St & 2nd Ave","latitude":"47.6045341","longitude":"-122.334076","region":1112},"103":{"stop_name":"Marion St & 4th Ave","latitude":"47.6054611","longitude":"-122.331863","region":1112},"104":{"stop_name":"Prefontaine Pl S & Yesler Way","latitude":"47.6016579","longitude":"-122.329941","region":1112},"105":{"stop_name":"Westlake Ave & Virginia St","latitude":"47.6148643","longitude":"-122.33786","region":1046},"106":{"stop_name":"Westlake Ave & Olive Way","latitude":"47.6132812","longitude":"-122.337547","region":1046},"107":{"stop_name":"S Jackson St & 5th Ave S","latitude":"47.5992622","longitude":"-122.327263","region":1112},"108":{"stop_name":"S Jackson St & 5th Ave S","latitude":"47.5991249","longitude":"-122.327286","region":1112},"109":{"stop_name":"S Jackson St & 8th Ave S","latitude":"47.5992661","longitude":"-122.323341","region":1179},"110":{"stop_name":"S Jackson St & 8th Ave S","latitude":"47.5991249","longitude":"-122.323395","region":1179},"111":{"stop_name":"S Jackson St & 12th Ave S","latitude":"47.5992737","longitude":"-122.315536","region":1179},"112":{"stop_name":"S Jackson St & 12th Ave S","latitude":"47.5991402","longitude":"-122.315529","region":1179},"113":{"stop_name":"14th Ave S & S Washington St","latitude":"47.6005745","longitude":"-122.31424","region":1179},"114":{"stop_name":"14th Ave S & S Washington St","latitude":"47.6005936","longitude":"-122.314041","region":1179},"115":{"stop_name":"3rd Ave & Vine St","latitude":"47.6169586","longitude":"-122.34845","region":980},"116":{"stop_name":"Terrace St & 5th Ave","latitude":"47.602047","longitude":"-122.328255","region":1112},"117":{"stop_name":"Vashon Island Water Taxi & Colman Dock","latitude":"47.601223","longitude":"-122.338928","region":1045},"118":{"stop_name":"Marion St & 1st Ave","latitude":"47.6041451","longitude":"-122.335022","region":1045},"119":{"stop_name":"West Seattle Water Taxi & Colman Dock","latitude":"47.6011467","longitude":"-122.338737","region":1045},"120":{"stop_name":"Lenora St & 4th Ave","latitude":"47.6139717","longitude":"-122.341293","region":1046},"121":{"stop_name":"10th Ave W & W Armour St","latitude":"47.6451111","longitude":"-122.370277","region":848},"122":{"stop_name":"10th Ave W & W Bothwell St","latitude":"47.643486","longitude":"-122.370308","region":848},"123":{"stop_name":"10th Ave W & W Halladay St","latitude":"47.6417923","longitude":"-122.370171","region":848},"124":{"stop_name":"10th Ave W & W Mcgraw St","latitude":"47.6394577","longitude":"-122.370399","region":848},"125":{"stop_name":"10th Ave W & W Crockett St","latitude":"47.6375847","longitude":"-122.370438","region":848},"126":{"stop_name":"10th Ave W & W Howe St","latitude":"47.6357689","longitude":"-122.370468","region":847},"127":{"stop_name":"10th Ave W & W Blaine St","latitude":"47.6345634","longitude":"-122.370483","region":847},"128":{"stop_name":"10th Ave W & W Galer St","latitude":"47.6323662","longitude":"-122.370506","region":847},"129":{"stop_name":"Olympic Way W & W Lee St","latitude":"47.6310806","longitude":"-122.370155","region":847},"130":{"stop_name":"Olympic Way W & 9th Ave W","latitude":"47.6295013","longitude":"-122.368637","region":847},"131":{"stop_name":"Olympic Way W & 7th Ave W","latitude":"47.6275978","longitude":"-122.366112","region":914},"132":{"stop_name":"Olympic Way W & 5th Ave W","latitude":"47.6266708","longitude":"-122.363335","region":913},"133":{"stop_name":"W Olympic Pl & 3rd Ave W","latitude":"47.6266556","longitude":"-122.360306","region":913},"134":{"stop_name":"W Roy St & 2nd Ave W","latitude":"47.6256561","longitude":"-122.358765","region":913},"135":{"stop_name":"Queen Anne Ave N & W Harrison St","latitude":"47.6218338","longitude":"-122.356819","region":913},"136":{"stop_name":"Queen Anne Ave N & W John St","latitude":"47.6192131","longitude":"-122.35685","region":913},"137":{"stop_name":"S Lewis St & Sumac Dr","latitude":"47.8487167","longitude":"-121.970749","region":3347},"138":{"stop_name":"N Kelsey St & Galaxy Way","latitude":"47.8645172","longitude":"-121.975014","region":3349},"139":{"stop_name":"Us Hwy 2 & Sr 522 Ramp","latitude":"47.8610916","longitude":"-121.977966","region":3349},"140":{"stop_name":"Freylands Blvd & Tye St SE","latitude":"47.8710632","longitude":"-122.009109","region":-1},"141":{"stop_name":"Village Way & Sky River Pkwy","latitude":"47.8489342","longitude":"-121.984032","region":3280},"142":{"stop_name":"S Lewis St & Powell St","latitude":"47.8499641","longitude":"-121.970932","region":3347},"143":{"stop_name":"3rd Ave & Cedar St","latitude":"47.6167755","longitude":"-122.34845","region":980},"144":{"stop_name":"Denny Way & 2nd Ave N","latitude":"47.618515","longitude":"-122.351944","region":980},"145":{"stop_name":"Denny Way & 5th Ave N","latitude":"47.6185036","longitude":"-122.347878","region":980},"146":{"stop_name":"Denny Way & 6th Ave","latitude":"47.6184959","longitude":"-122.345131","region":1047},"147":{"stop_name":"Denny Way & Dexter Ave","latitude":"47.6184807","longitude":"-122.342545","region":1047},"148":{"stop_name":"Denny Way & Westlake Ave","latitude":"47.6184692","longitude":"-122.338219","region":1047},"149":{"stop_name":"Denny Way & Fairview Ave","latitude":"47.6184616","longitude":"-122.334572","region":1047},"150":{"stop_name":"Denny Way & Stewart St","latitude":"47.6184273","longitude":"-122.330925","region":1114},"151":{"stop_name":"E Denny Way & Bellevue Ave E","latitude":"47.6185646","longitude":"-122.326553","region":1114},"152":{"stop_name":"Denny Way & Fairview Ave N","latitude":"47.6186028","longitude":"-122.334213","region":1114},"153":{"stop_name":"Denny Way & Westlake Ave","latitude":"47.6186066","longitude":"-122.33902","region":1047},"154":{"stop_name":"Denny Way & Dexter Ave N","latitude":"47.6186142","longitude":"-122.342163","region":1047},"155":{"stop_name":"Denny Way & 6th Ave N","latitude":"47.6186295","longitude":"-122.345291","region":980},"156":{"stop_name":"Denny Way & 5th Ave N","latitude":"47.6186409","longitude":"-122.347847","region":980},"157":{"stop_name":"1st Ave & Broad St","latitude":"47.6172066","longitude":"-122.352859","region":980},"158":{"stop_name":"1st Ave N & Denny Way","latitude":"47.6191177","longitude":"-122.355362","region":980},"159":{"stop_name":"1st Ave N & Republican St","latitude":"47.6231232","longitude":"-122.355309","region":980},"160":{"stop_name":"Republican St & 1st Ave N","latitude":"47.6231995","longitude":"-122.355537","region":980},"161":{"stop_name":"Mercer St & Queen Anne Ave N","latitude":"47.624649","longitude":"-122.356552","region":913},"162":{"stop_name":"2nd Ave W & W Roy St","latitude":"47.6258965","longitude":"-122.359215","region":913},"163":{"stop_name":"W Olympic Pl & 3rd Ave W","latitude":"47.6267929","longitude":"-122.360535","region":914},"164":{"stop_name":"W Olympic Pl & 5th Ave W","latitude":"47.6267967","longitude":"-122.363159","region":914},"165":{"stop_name":"Olympic Way W & 7th Ave W","latitude":"47.6278458","longitude":"-122.366371","region":914},"166":{"stop_name":"Olympic Way W & W Prospect St","latitude":"47.6290665","longitude":"-122.367966","region":847},"167":{"stop_name":"Olympic Way W & W Lee St","latitude":"47.631279","longitude":"-122.37011","region":847},"168":{"stop_name":"10th Ave W & W Galer St","latitude":"47.6325035","longitude":"-122.370308","region":847},"169":{"stop_name":"10th Ave W & W Blaine St","latitude":"47.6349564","longitude":"-122.370262","region":847},"170":{"stop_name":"10th Ave W & W Howe St","latitude":"47.636158","longitude":"-122.370247","region":847},"171":{"stop_name":"10th Ave W & W Crockett St","latitude":"47.6379738","longitude":"-122.370224","region":848},"172":{"stop_name":"10th Ave W & W Mcgraw St","latitude":"47.6397667","longitude":"-122.370087","region":848},"173":{"stop_name":"10th Ave W & W Halladay St","latitude":"47.6421928","longitude":"-122.369965","region":848},"174":{"stop_name":"10th Ave W & W Newell St","latitude":"47.644455","longitude":"-122.370087","region":848},"175":{"stop_name":"9th Ave W & W Armour St","latitude":"47.6453171","longitude":"-122.369278","region":848},"176":{"stop_name":"7th Ave W & W Pleasant Pl","latitude":"47.6426506","longitude":"-122.366356","region":915},"177":{"stop_name":"W Mcgraw St & 6th Ave W","latitude":"47.6395149","longitude":"-122.365318","region":915},"178":{"stop_name":"6th Ave W & W Crockett St","latitude":"47.6375656","longitude":"-122.365089","region":915},"179":{"stop_name":"6th Ave W & W Howe St","latitude":"47.6360245","longitude":"-122.365097","region":914},"180":{"stop_name":"6th Ave W & W Blaine St","latitude":"47.6345253","longitude":"-122.365128","region":914},"181":{"stop_name":"6th Ave W & W Galer St","latitude":"47.6324577","longitude":"-122.365158","region":914},"182":{"stop_name":"W Galer St & 5th Ave W","latitude":"47.6322632","longitude":"-122.362793","region":914},"183":{"stop_name":"W Galer St & 2nd Ave W","latitude":"47.6322441","longitude":"-122.358505","region":914},"184":{"stop_name":"Queen Anne Ave N & W Galer St","latitude":"47.6318359","longitude":"-122.356697","region":914},"185":{"stop_name":"Queen Anne Ave N & W Highland Dr","latitude":"47.629612","longitude":"-122.356728","region":914},"186":{"stop_name":"Queen Anne Ave N & W Prospect St","latitude":"47.6285133","longitude":"-122.356781","region":914},"187":{"stop_name":"Queen Anne Ave N & W Mercer St","latitude":"47.6240616","longitude":"-122.356812","region":913},"188":{"stop_name":"Queen Anne Ave N & W Aloha St","latitude":"47.626545","longitude":"-122.356796","region":913},"189":{"stop_name":"1st Ave N & Mercer St","latitude":"47.6247368","longitude":"-122.355309","region":980},"190":{"stop_name":"Queen Anne Ave N & Aloha St","latitude":"47.6271095","longitude":"-122.35659","region":914},"191":{"stop_name":"Queen Anne Ave N & Ward St","latitude":"47.6283188","longitude":"-122.356575","region":914},"192":{"stop_name":"Queen Anne Ave N & Highland Dr","latitude":"47.6297913","longitude":"-122.356522","region":914},"193":{"stop_name":"Queen Anne Ave N & W Lee St","latitude":"47.6314926","longitude":"-122.356491","region":914},"194":{"stop_name":"W Galer St & 1st Ave W","latitude":"47.6323891","longitude":"-122.358627","region":914},"195":{"stop_name":"W Galer St & 3rd Ave W","latitude":"47.6323929","longitude":"-122.36129","region":914},"196":{"stop_name":"W Galer St & 5th Ave W","latitude":"47.6323929","longitude":"-122.364037","region":914},"197":{"stop_name":"6th Ave W & W Garfield St","latitude":"47.6337013","longitude":"-122.364937","region":914},"198":{"stop_name":"6th Ave W & W Howe St","latitude":"47.6361618","longitude":"-122.364899","region":914},"199":{"stop_name":"6th Ave W & W Crockett St","latitude":"47.63797","longitude":"-122.364868","region":915},"200":{"stop_name":"6th Ave W & W Mcgraw St","latitude":"47.6398392","longitude":"-122.364838","region":915},"201":{"stop_name":"6th Ave W & W Smith St","latitude":"47.6416321","longitude":"-122.364815","region":915},"202":{"stop_name":"6th Ave W & W Raye St","latitude":"47.6430016","longitude":"-122.364799","region":915},"203":{"stop_name":"Madrona Park & Lake Washington Blvd","latitude":"47.6121902","longitude":"-122.2817","region":1381},"204":{"stop_name":"Madrona Dr & Newport Way","latitude":"47.6135712","longitude":"-122.282578","region":1381},"205":{"stop_name":"Madrona Dr & E Pine St","latitude":"47.6152115","longitude":"-122.283791","region":1381},"206":{"stop_name":"Madrona Dr & E Olive St","latitude":"47.616684","longitude":"-122.284492","region":1382},"207":{"stop_name":"Madrona Dr & Madrona Pl E","latitude":"47.6183472","longitude":"-122.285255","region":1382},"208":{"stop_name":"E Denny Way & E Florence Ct","latitude":"47.6183548","longitude":"-122.288628","region":1382},"209":{"stop_name":"34th Ave & E Howell St","latitude":"47.6173935","longitude":"-122.289284","region":1382},"210":{"stop_name":"34th Ave & E Olive St","latitude":"47.6163025","longitude":"-122.289314","region":1381},"211":{"stop_name":"34th Ave & E Pine St","latitude":"47.6149864","longitude":"-122.289337","region":1381},"212":{"stop_name":"34th Ave & E Union St","latitude":"47.6130142","longitude":"-122.289406","region":1381},"213":{"stop_name":"E Union St & 33rd Ave","latitude":"47.6129723","longitude":"-122.290802","region":1381},"214":{"stop_name":"E Union St & 31st Ave","latitude":"47.6130066","longitude":"-122.292915","region":1314},"215":{"stop_name":"E Union St & 29th Ave","latitude":"47.6130295","longitude":"-122.295296","region":1314},"216":{"stop_name":"E Union St & 27th Ave","latitude":"47.6130066","longitude":"-122.297836","region":1314},"217":{"stop_name":"E Union St & 25th Ave","latitude":"47.6130066","longitude":"-122.300461","region":1314},"218":{"stop_name":"E Union St & 23rd Ave","latitude":"47.6130066","longitude":"-122.303001","region":1247},"219":{"stop_name":"E Union St & 20th Ave","latitude":"47.6129799","longitude":"-122.306168","region":1247},"220":{"stop_name":"E Union St & 18th Ave","latitude":"47.6129723","longitude":"-122.309349","region":1247},"221":{"stop_name":"E Union St & 14th Ave","latitude":"47.6129723","longitude":"-122.314423","region":1180},"222":{"stop_name":"E Union St & Broadway","latitude":"47.6130295","longitude":"-122.320595","region":1180},"223":{"stop_name":"Seneca St & Harvard Ave","latitude":"47.6126022","longitude":"-122.322319","region":1180},"224":{"stop_name":"Seneca St & Summit Ave","latitude":"47.6116295","longitude":"-122.32457","region":1113},"225":{"stop_name":"Seneca St & Boren Ave","latitude":"47.6109276","longitude":"-122.326233","region":1113},"226":{"stop_name":"Seneca St & Terry Ave","latitude":"47.6102257","longitude":"-122.327904","region":1113},"227":{"stop_name":"Seneca St & 8th Ave","latitude":"47.6092796","longitude":"-122.33017","region":1113},"228":{"stop_name":"Seneca St & 8th Ave","latitude":"47.6092529","longitude":"-122.329842","region":1113},"229":{"stop_name":"Seneca St & 9th Ave","latitude":"47.60989","longitude":"-122.328316","region":1113},"230":{"stop_name":"Seneca St & Boren Ave","latitude":"47.6108093","longitude":"-122.326126","region":1113},"231":{"stop_name":"Seneca St & Summit Ave","latitude":"47.611763","longitude":"-122.323883","region":1113},"232":{"stop_name":"Seneca St & Boylston Ave","latitude":"47.6122208","longitude":"-122.322777","region":1180},"233":{"stop_name":"E Union St & Broadway","latitude":"47.6128845","longitude":"-122.320389","region":1180},"234":{"stop_name":"E Madison St & 12th Ave","latitude":"47.6124802","longitude":"-122.317429","region":1180},"235":{"stop_name":"E Union St & 13th Ave","latitude":"47.6128387","longitude":"-122.315636","region":1180},"236":{"stop_name":"E Union St & 18th Ave","latitude":"47.6128387","longitude":"-122.309021","region":1247},"237":{"stop_name":"E Union St & 20th Ave","latitude":"47.6128387","longitude":"-122.306412","region":1247},"238":{"stop_name":"E Union St & 22nd Ave","latitude":"47.6128616","longitude":"-122.303764","region":1247},"239":{"stop_name":"E Union St & 26th Ave","latitude":"47.6128616","longitude":"-122.298477","region":1314},"240":{"stop_name":"E Union St & Martin L King Jr Way","latitude":"47.612896","longitude":"-122.295654","region":1314},"241":{"stop_name":"E Union St & 30th Ave","latitude":"47.6128807","longitude":"-122.293755","region":1314},"242":{"stop_name":"E Union St & 32nd Ave","latitude":"47.6128387","longitude":"-122.291183","region":1381},"243":{"stop_name":"34th Ave & E Olive St","latitude":"47.6166916","longitude":"-122.289093","region":1382},"244":{"stop_name":"34th Ave & E Howell St","latitude":"47.6175575","longitude":"-122.289078","region":1382},"245":{"stop_name":"34th Ave & E Pike St","latitude":"47.6144218","longitude":"-122.289162","region":1381},"246":{"stop_name":"Madrona Dr & 38th Ave","latitude":"47.6181641","longitude":"-122.285149","region":1382},"247":{"stop_name":"Madrona Dr & E Olive St","latitude":"47.6165276","longitude":"-122.284698","region":1381},"248":{"stop_name":"Madrona Dr & E Pine St","latitude":"47.6150093","longitude":"-122.283859","region":1381},"249":{"stop_name":"Madrona Dr & Newport Way","latitude":"47.6134796","longitude":"-122.28273","region":1381},"250":{"stop_name":"Beacon Ave S & S Columbian Way","latitude":"47.5592232","longitude":"-122.304161","region":1242},"251":{"stop_name":"Beacon Ave S & Veterans Administration Hospital","latitude":"47.5637321","longitude":"-122.305565","region":1242},"252":{"stop_name":"Beacon Ave S & Jefferson Golf Course","latitude":"47.5673218","longitude":"-122.306671","region":1243},"253":{"stop_name":"Beacon Ave S & Jefferson Community Center","latitude":"47.569809","longitude":"-122.307449","region":1243},"254":{"stop_name":"Beacon Ave S & S Spokane St","latitude":"47.5724297","longitude":"-122.308304","region":1243},"255":{"stop_name":"Beacon Ave S & S Hanford St","latitude":"47.5753593","longitude":"-122.309204","region":1243},"256":{"stop_name":"Beacon Ave S & S Stevens St","latitude":"47.5774956","longitude":"-122.310432","region":1244},"257":{"stop_name":"Beacon Ave S & S Lander St","latitude":"47.579319","longitude":"-122.312126","region":1244},"258":{"stop_name":"Beacon Ave S & 15th Ave S","latitude":"47.5809555","longitude":"-122.313629","region":1177},"259":{"stop_name":"14th Ave S & S Hill St","latitude":"47.5845032","longitude":"-122.314583","region":1177},"260":{"stop_name":"14th Ave S & S Holgate St","latitude":"47.5866051","longitude":"-122.314568","region":1178},"261":{"stop_name":"S Massachusetts St & 14th Ave S","latitude":"47.5885086","longitude":"-122.315208","region":1178},"262":{"stop_name":"12th Ave S & S Massachusetts St","latitude":"47.5887604","longitude":"-122.317177","region":1178},"263":{"stop_name":"12th Ave S & S Atlantic St","latitude":"47.5902481","longitude":"-122.317177","region":1178},"264":{"stop_name":"12th Ave S & S Judkins St","latitude":"47.5927162","longitude":"-122.317177","region":1178},"265":{"stop_name":"S Charles St & Golf Dr S","latitude":"47.5941429","longitude":"-122.316727","region":1178},"266":{"stop_name":"12th Ave S & S Weller St","latitude":"47.5973778","longitude":"-122.317123","region":1179},"267":{"stop_name":"S Jackson St & 12th Ave S","latitude":"47.5992699","longitude":"-122.317757","region":1179},"268":{"stop_name":"12th Ave S & S Jackson St","latitude":"47.5986519","longitude":"-122.317329","region":1179},"269":{"stop_name":"12th Ave S & S Weller St","latitude":"47.5973053","longitude":"-122.317329","region":1179},"270":{"stop_name":"Golf Dr S & 14th Ave S","latitude":"47.5929909","longitude":"-122.31501","region":1178},"271":{"stop_name":"14th Ave S & S Judkins St","latitude":"47.5911865","longitude":"-122.314949","region":1178},"272":{"stop_name":"14th Ave S & S Massachusetts St","latitude":"47.5881844","longitude":"-122.314964","region":1178},"273":{"stop_name":"14th Ave S & S Holgate St","latitude":"47.5861359","longitude":"-122.314774","region":1178},"274":{"stop_name":"14th Ave S & S Hill St","latitude":"47.5843391","longitude":"-122.314789","region":1177},"275":{"stop_name":"Beacon Ave S & S Bayview St","latitude":"47.5812912","longitude":"-122.314186","region":1177},"276":{"stop_name":"Beacon Ave S & S Lander St","latitude":"47.5792542","longitude":"-122.312302","region":1244},"277":{"stop_name":"Beacon Ave S & S Stevens St","latitude":"47.5771141","longitude":"-122.310318","region":1244},"278":{"stop_name":"Beacon Ave S & S Hanford St","latitude":"47.5751915","longitude":"-122.309349","region":1243},"279":{"stop_name":"Beacon Ave S & S Spokane St","latitude":"47.5715675","longitude":"-122.308243","region":1243},"280":{"stop_name":"Beacon Ave S & Jefferson Community Center","latitude":"47.5694923","longitude":"-122.307564","region":1243},"281":{"stop_name":"Beacon Ave S & Jefferson Golf Course","latitude":"47.5668449","longitude":"-122.30674","region":1243},"282":{"stop_name":"Beacon Ave S & Veterans Administration Hospital","latitude":"47.5633316","longitude":"-122.305634","region":1242},"283":{"stop_name":"Beacon Ave S & S Columbian Way","latitude":"47.5592728","longitude":"-122.304665","region":1242},"284":{"stop_name":"W Mcgraw St & 2nd Ave W","latitude":"47.6395187","longitude":"-122.359222","region":915},"285":{"stop_name":"Queen Anne Ave N & W Mcgraw St","latitude":"47.6393204","longitude":"-122.35701","region":915},"286":{"stop_name":"Boston St & Queen Anne Ave N","latitude":"47.6383247","longitude":"-122.356552","region":915},"287":{"stop_name":"Boston St & Warren Ave N","latitude":"47.638195","longitude":"-122.3545","region":982},"288":{"stop_name":"Boston St & Nob Hill Ave N","latitude":"47.6381874","longitude":"-122.350853","region":982},"289":{"stop_name":"Boston St & Bigelow Ave N","latitude":"47.6381874","longitude":"-122.348404","region":982},"290":{"stop_name":"5th Ave N & Newton St","latitude":"47.6363068","longitude":"-122.347229","region":981},"291":{"stop_name":"Taylor Ave N & 5th Ave N","latitude":"47.6346092","longitude":"-122.347519","region":981},"292":{"stop_name":"Taylor Ave N & Garfield St","latitude":"47.6331444","longitude":"-122.346054","region":981},"293":{"stop_name":"Taylor Ave N & Lee St","latitude":"47.6310921","longitude":"-122.346375","region":981},"294":{"stop_name":"Taylor Ave N & Prospect St","latitude":"47.6289711","longitude":"-122.346344","region":981},"295":{"stop_name":"5th Ave N & Valley St","latitude":"47.6259346","longitude":"-122.347656","region":980},"296":{"stop_name":"5th Ave N & Republican St","latitude":"47.6236115","longitude":"-122.347672","region":980},"297":{"stop_name":"5th Ave N & Broad St","latitude":"47.6212883","longitude":"-122.34771","region":980},"298":{"stop_name":"5th Ave N & Denny Way","latitude":"47.6192131","longitude":"-122.347725","region":980},"299":{"stop_name":"Cedar St & Denny Way","latitude":"47.6185303","longitude":"-122.347519","region":980},"300":{"stop_name":"5th Ave N & Broad St","latitude":"47.6213036","longitude":"-122.347504","region":980},"301":{"stop_name":"5th Ave N & Republican St","latitude":"47.6235886","longitude":"-122.347466","region":980},"302":{"stop_name":"Valley St & Taylor Ave N","latitude":"47.6261978","longitude":"-122.346382","region":980},"303":{"stop_name":"Taylor Ave N & Prospect St","latitude":"47.6291275","longitude":"-122.346138","region":981},"304":{"stop_name":"Taylor Ave N & Lee St","latitude":"47.6313553","longitude":"-122.346184","region":981},"305":{"stop_name":"Taylor Ave N & Galer St","latitude":"47.6325073","longitude":"-122.345863","region":981},"306":{"stop_name":"Taylor Ave N & 5th Ave N","latitude":"47.6342125","longitude":"-122.34626","region":981},"307":{"stop_name":"5th Ave N & Newton St","latitude":"47.6367645","longitude":"-122.347015","region":981},"308":{"stop_name":"Boston St & 4th Ave N","latitude":"47.6383247","longitude":"-122.349785","region":982},"309":{"stop_name":"Boston St & 2nd Ave N","latitude":"47.6383286","longitude":"-122.353424","region":982},"310":{"stop_name":"Boston St & 1st Ave N","latitude":"47.6384544","longitude":"-122.356247","region":915},"311":{"stop_name":"Queen Anne Ave N & Garfield St","latitude":"47.6338272","longitude":"-122.356873","region":914},"312":{"stop_name":"Queen Anne Ave N & W Howe St","latitude":"47.6357346","longitude":"-122.356865","region":914},"313":{"stop_name":"Queen Anne Ave N & W Crockett St","latitude":"47.636879","longitude":"-122.357056","region":914},"314":{"stop_name":"N 85th St & Greenwood Ave N","latitude":"47.6905289","longitude":"-122.354935","region":987},"315":{"stop_name":"N 85th St & Fremont Ave N","latitude":"47.690506","longitude":"-122.349609","region":987},"316":{"stop_name":"N 85th St & Aurora Ave N","latitude":"47.6904907","longitude":"-122.344734","region":1054},"317":{"stop_name":"N 85th St & Stone Ave N","latitude":"47.6904716","longitude":"-122.341507","region":1054},"318":{"stop_name":"N 85th St & Wallingford Ave N","latitude":"47.6904449","longitude":"-122.336601","region":1054},"319":{"stop_name":"NE 42nd St & 8th Ave NE","latitude":"47.657589","longitude":"-122.320366","region":1185},"320":{"stop_name":"7th Ave NE & NE 42nd St","latitude":"47.6581497","longitude":"-122.320747","region":1185},"321":{"stop_name":"I-5 & NE 45th St","latitude":"47.6616135","longitude":"-122.320801","region":1185},"322":{"stop_name":"N 85th St & Wallingford Ave N","latitude":"47.6905785","longitude":"-122.336769","region":1054},"323":{"stop_name":"N 85th St & Stone Ave N","latitude":"47.690609","longitude":"-122.341194","region":1054},"324":{"stop_name":"N 85th St & Aurora Ave N","latitude":"47.6906242","longitude":"-122.344162","region":1054},"325":{"stop_name":"N 85th St & Fremont Ave N","latitude":"47.6906471","longitude":"-122.350266","region":987},"326":{"stop_name":"Greenwood Ave N & N Greenwood Dr","latitude":"47.7471123","longitude":"-122.355576","region":992},"327":{"stop_name":"Carlyle Hall Rd N & Dayton Ave N","latitude":"47.7487526","longitude":"-122.353638","region":992},"328":{"stop_name":"Carlyle Hall Rd N & Dayton Ave N","latitude":"47.7500114","longitude":"-122.355179","region":993},"329":{"stop_name":"Greenwood Ave N & N Greenwood Dr","latitude":"47.7467041","longitude":"-122.355782","region":992},"330":{"stop_name":"Shoreline Community College","latitude":"47.7469978","longitude":"-122.357857","region":925},"331":{"stop_name":"Shoreline Community College","latitude":"47.7471504","longitude":"-122.35865","region":925},"332":{"stop_name":"N Innis Arden Way & Greenwood Ave N","latitude":"47.7452812","longitude":"-122.356026","region":925},"333":{"stop_name":"Greenwood Ave N & N 145th St","latitude":"47.7337799","longitude":"-122.355675","region":991},"334":{"stop_name":"Greenwood Ave N & N 143rd St","latitude":"47.7320366","longitude":"-122.355659","region":991},"335":{"stop_name":"Greenwood Ave N & N 137th St","latitude":"47.728447","longitude":"-122.355644","region":990},"336":{"stop_name":"Greenwood Ave N & N 134th St","latitude":"47.7264252","longitude":"-122.355659","region":990},"337":{"stop_name":"Greenwood Ave N & N 130th St","latitude":"47.7229576","longitude":"-122.355659","region":990},"338":{"stop_name":"Greenwood Ave N & N 125th St","latitude":"47.719677","longitude":"-122.355644","region":990},"339":{"stop_name":"Greenwood Ave N & N 122nd St","latitude":"47.717186","longitude":"-122.355637","region":989},"340":{"stop_name":"Greenwood Ave N & N 117th St","latitude":"47.7137604","longitude":"-122.355621","region":989},"341":{"stop_name":"Greenwood Ave N & N 115th St","latitude":"47.7121162","longitude":"-122.355606","region":989},"342":{"stop_name":"Greenwood Ave N & N 110th St","latitude":"47.7084351","longitude":"-122.355576","region":989},"343":{"stop_name":"Greenwood Ave N & Holman Rd N","latitude":"47.7045212","longitude":"-122.355537","region":988},"344":{"stop_name":"Greenwood Ave N & N 100th St","latitude":"47.7011604","longitude":"-122.355507","region":988},"345":{"stop_name":"Greenwood Ave N & N 97th St","latitude":"47.6993752","longitude":"-122.355499","region":988},"346":{"stop_name":"Greenwood Ave N & N 92nd St","latitude":"47.6958084","longitude":"-122.355469","region":987},"347":{"stop_name":"Greenwood Ave N & N 90th St","latitude":"47.6942673","longitude":"-122.355438","region":987},"348":{"stop_name":"Greenwood Ave N & N 87th St","latitude":"47.6925507","longitude":"-122.355431","region":987},"349":{"stop_name":"Greenwood Ave N & N 85th St","latitude":"47.6903305","longitude":"-122.3554","region":987},"350":{"stop_name":"Greenwood Ave N & N 80th St","latitude":"47.6867065","longitude":"-122.3554","region":986},"351":{"stop_name":"Greenwood Ave N & N 78th St","latitude":"47.6851807","longitude":"-122.3554","region":986},"352":{"stop_name":"Greenwood Ave N & N 76th St","latitude":"47.6837616","longitude":"-122.3554","region":986},"353":{"stop_name":"Greenwood Ave N & N 74th St","latitude":"47.6823006","longitude":"-122.3554","region":986},"354":{"stop_name":"Greenwood Ave N & N 70th St","latitude":"47.6793098","longitude":"-122.355415","region":986},"355":{"stop_name":"Phinney Ave N & N 67th St","latitude":"47.6780128","longitude":"-122.355377","region":986},"356":{"stop_name":"Phinney Ave N & N 65th St","latitude":"47.6756935","longitude":"-122.354462","region":985},"357":{"stop_name":"Phinney Ave N & N 61st St","latitude":"47.6727791","longitude":"-122.354485","region":985},"358":{"stop_name":"Phinney Ave N & N 59th St","latitude":"47.6715622","longitude":"-122.354485","region":985},"359":{"stop_name":"Phinney Ave N & N 55th St","latitude":"47.6684837","longitude":"-122.354515","region":985},"360":{"stop_name":"Phinney Ave N & N 54th St","latitude":"47.6675034","longitude":"-122.35453","region":985},"361":{"stop_name":"Phinney Ave N & N 50th St","latitude":"47.6646996","longitude":"-122.354065","region":984},"362":{"stop_name":"Phinney Ave N & N 46th St","latitude":"47.661869","longitude":"-122.354088","region":984},"363":{"stop_name":"N 43rd St & Phinney Ave N","latitude":"47.6588936","longitude":"-122.353943","region":984},"364":{"stop_name":"N 43rd St & Fremont Ave N","latitude":"47.6588821","longitude":"-122.350266","region":984},"365":{"stop_name":"Fremont Ave N & N 41st St","latitude":"47.6564255","longitude":"-122.350044","region":983},"366":{"stop_name":"Fremont Ave N & N 39th St","latitude":"47.6550369","longitude":"-122.350021","region":983},"367":{"stop_name":"Aurora Ave N & N 38th St","latitude":"47.6519356","longitude":"-122.347809","region":983},"368":{"stop_name":"Aurora Ave N & Halladay St","latitude":"47.642086","longitude":"-122.347069","region":982},"369":{"stop_name":"Aurora Ave N & Lynn St","latitude":"47.6389084","longitude":"-122.345596","region":982},"370":{"stop_name":"Seacrest Marina & Harbor Ave SW","latitude":"47.589325","longitude":"-122.380608","region":776},"371":{"stop_name":"Aurora Ave N & Crockett St","latitude":"47.6367531","longitude":"-122.344116","region":1048},"372":{"stop_name":"Aurora Ave N & Galer St","latitude":"47.6321678","longitude":"-122.343666","region":1048},"373":{"stop_name":"Aurora Ave N & Prospect St","latitude":"47.6287308","longitude":"-122.343697","region":1048},"374":{"stop_name":"7th Ave N & Thomas St","latitude":"47.6210556","longitude":"-122.343842","region":1047},"375":{"stop_name":"7th Ave & Blanchard St","latitude":"47.6163635","longitude":"-122.339813","region":1046},"376":{"stop_name":"7th Ave & Blanchard St","latitude":"47.6168785","longitude":"-122.340385","region":1047},"377":{"stop_name":"7th Ave N & Denny Way","latitude":"47.6190987","longitude":"-122.343575","region":1047},"378":{"stop_name":"7th Ave N & Harrison St","latitude":"47.6218948","longitude":"-122.343506","region":1047},"379":{"stop_name":"Dexter Ave N & Denny Way","latitude":"47.6189423","longitude":"-122.3423","region":1047},"380":{"stop_name":"Aurora Ave N & Prospect St","latitude":"47.6292381","longitude":"-122.343353","region":1048},"381":{"stop_name":"Aurora Ave N & Galer St","latitude":"47.6325722","longitude":"-122.343323","region":1048},"382":{"stop_name":"Aurora Ave N & Crockett St","latitude":"47.6374054","longitude":"-122.344185","region":1049},"383":{"stop_name":"Aurora Ave N & Lynn St","latitude":"47.6388741","longitude":"-122.3452","region":1049},"384":{"stop_name":"Aurora Ave N & Halladay St","latitude":"47.6419754","longitude":"-122.346672","region":982},"385":{"stop_name":"Aurora Ave N & N 38th St","latitude":"47.6524734","longitude":"-122.346619","region":983},"386":{"stop_name":"Fremont Ave N & N 39th St","latitude":"47.6543999","longitude":"-122.349815","region":983},"387":{"stop_name":"Fremont Ave N & N 41st St","latitude":"47.6569023","longitude":"-122.349854","region":983},"388":{"stop_name":"N 43rd St & Fremont Ave N","latitude":"47.6590233","longitude":"-122.350403","region":984},"389":{"stop_name":"Phinney Ave N & N 43rd St","latitude":"47.6592865","longitude":"-122.354279","region":984},"390":{"stop_name":"Phinney Ave N & N 46th St","latitude":"47.6624184","longitude":"-122.353882","region":984},"391":{"stop_name":"Phinney Ave N & N 50th St","latitude":"47.664959","longitude":"-122.353874","region":984},"392":{"stop_name":"Phinney Ave N & N 53rd St","latitude":"47.6668968","longitude":"-122.354324","region":984},"393":{"stop_name":"Phinney Ave N & N 55th St","latitude":"47.6683502","longitude":"-122.354309","region":985},"394":{"stop_name":"Phinney Ave N & N 58th St","latitude":"47.6709595","longitude":"-122.354294","region":985},"395":{"stop_name":"Phinney Ave N & N 60th St","latitude":"47.6727638","longitude":"-122.354279","region":985},"396":{"stop_name":"Phinney Ave N & N 64th St","latitude":"47.6756401","longitude":"-122.354256","region":985},"397":{"stop_name":"Phinney Ave N & N 67th St","latitude":"47.6772804","longitude":"-122.354256","region":985},"398":{"stop_name":"Greenwood Ave N & N 68th St","latitude":"47.678936","longitude":"-122.355209","region":986},"399":{"stop_name":"Greenwood Ave N & N 72nd St","latitude":"47.6813812","longitude":"-122.355209","region":986},"400":{"stop_name":"Greenwood Ave N & N 75th St","latitude":"47.6835365","longitude":"-122.355194","region":986},"401":{"stop_name":"Greenwood Ave N & N 77th St","latitude":"47.6850548","longitude":"-122.355194","region":986},"402":{"stop_name":"Greenwood Ave N & N 80th St","latitude":"47.6873322","longitude":"-122.355194","region":986},"403":{"stop_name":"Greenwood Ave N & N 85th St","latitude":"47.6909676","longitude":"-122.355209","region":987},"404":{"stop_name":"Greenwood Ave N & N 90th St","latitude":"47.6944656","longitude":"-122.355247","region":987},"405":{"stop_name":"Greenwood Ave N & N 92nd St","latitude":"47.6962891","longitude":"-122.355278","region":987},"406":{"stop_name":"Greenwood Ave N & N 97th St","latitude":"47.7000084","longitude":"-122.355309","region":988},"407":{"stop_name":"Greenwood Ave N & N 100th St","latitude":"47.7017365","longitude":"-122.355316","region":988},"408":{"stop_name":"Greenwood Ave N & N 103rd St","latitude":"47.7038841","longitude":"-122.355347","region":988},"409":{"stop_name":"Greenwood Ave N & N 107th St","latitude":"47.7071762","longitude":"-122.355347","region":988},"410":{"stop_name":"Greenwood Ave N & N 110th St","latitude":"47.7090721","longitude":"-122.355347","region":989},"411":{"stop_name":"Greenwood Ave N & N 112th St","latitude":"47.7107773","longitude":"-122.3554","region":989},"412":{"stop_name":"Greenwood Ave N & N 117th St","latitude":"47.7144012","longitude":"-122.355415","region":989},"413":{"stop_name":"Greenwood Ave N & N 122nd St","latitude":"47.7180214","longitude":"-122.355431","region":989},"414":{"stop_name":"Greenwood Ave N & N 125th St","latitude":"47.7199478","longitude":"-122.355438","region":990},"415":{"stop_name":"Greenwood Ave N & N 130th St","latitude":"47.723671","longitude":"-122.355453","region":990},"416":{"stop_name":"Greenwood Ave N & N 134th St","latitude":"47.7266502","longitude":"-122.355438","region":990},"417":{"stop_name":"Greenwood Ave N & N 137th St","latitude":"47.7289734","longitude":"-122.355453","region":991},"418":{"stop_name":"Greenwood Ave N & N 143rd St","latitude":"47.7321358","longitude":"-122.355453","region":991},"419":{"stop_name":"Greenwood Ave N & N 145th St","latitude":"47.7335243","longitude":"-122.355469","region":991},"420":{"stop_name":"N Innis Arden Way & Greenwood Ave N","latitude":"47.7460976","longitude":"-122.357193","region":925},"421":{"stop_name":"Aurora Ave N & N 145th St","latitude":"47.7335701","longitude":"-122.345268","region":991},"422":{"stop_name":"Aurora Ave N & N 135th St","latitude":"47.726429","longitude":"-122.3451","region":1057},"423":{"stop_name":"Aurora Ave N & N 130th St","latitude":"47.7229614","longitude":"-122.345078","region":1057},"424":{"stop_name":"Aurora Ave N & N 125th St","latitude":"47.719902","longitude":"-122.345047","region":1057},"425":{"stop_name":"Aurora Ave N & N 115th St","latitude":"47.7119751","longitude":"-122.34491","region":1056},"426":{"stop_name":"Aurora Ave N & N 105th St","latitude":"47.7046356","longitude":"-122.344856","region":1055},"427":{"stop_name":"Aurora Ave N & N 100th St","latitude":"47.701088","longitude":"-122.34481","region":1055},"428":{"stop_name":"Aurora Ave N & N 95th St","latitude":"47.6974945","longitude":"-122.344704","region":1054},"429":{"stop_name":"Aurora Ave N & N 90th St","latitude":"47.6939621","longitude":"-122.344734","region":1054},"430":{"stop_name":"Aurora Ave N & N 85th St","latitude":"47.6898766","longitude":"-122.344681","region":1054},"431":{"stop_name":"Aurora Ave N & N 80th St","latitude":"47.6866722","longitude":"-122.344666","region":1053},"432":{"stop_name":"Aurora Ave N & N 76th St","latitude":"47.6841507","longitude":"-122.34465","region":1053},"433":{"stop_name":"Aurora Ave N & N 65th St","latitude":"47.6760826","longitude":"-122.346947","region":985},"434":{"stop_name":"Stone Way N & N 45th St","latitude":"47.6612206","longitude":"-122.342262","region":1051},"435":{"stop_name":"Stone Way N & N 43rd St","latitude":"47.6589622","longitude":"-122.342369","region":1051},"436":{"stop_name":"Stone Way N & N 40th St","latitude":"47.6551437","longitude":"-122.34256","region":1050},"437":{"stop_name":"Stone Way N & N 38th St","latitude":"47.6528664","longitude":"-122.342667","region":1050},"438":{"stop_name":"Wall St & 5th Ave","latitude":"47.6175041","longitude":"-122.345268","region":980},"439":{"stop_name":"Stone Way N & N 38th St","latitude":"47.6529388","longitude":"-122.342468","region":1050},"440":{"stop_name":"Stone Way N & N 40th St","latitude":"47.655159","longitude":"-122.342354","region":1050},"441":{"stop_name":"Stone Way N & N 42nd St","latitude":"47.6582642","longitude":"-122.342209","region":1051},"442":{"stop_name":"Stone Way N & N Allen Pl","latitude":"47.6605759","longitude":"-122.342079","region":1051},"443":{"stop_name":"Woodland Pl N & N 65th St","latitude":"47.6761627","longitude":"-122.347031","region":985},"444":{"stop_name":"Linden Ave N & N 72nd St","latitude":"47.6812248","longitude":"-122.346809","region":986},"445":{"stop_name":"Aurora Ave N & N 76th St","latitude":"47.6837234","longitude":"-122.344322","region":1053},"446":{"stop_name":"Aurora Ave N & N 80th St","latitude":"47.68713","longitude":"-122.344337","region":1053},"447":{"stop_name":"Aurora Ave N & N 85th St","latitude":"47.691082","longitude":"-122.34436","region":1054},"448":{"stop_name":"Aurora Ave N & N 91st St","latitude":"47.6947975","longitude":"-122.344421","region":1054},"449":{"stop_name":"Aurora Ave N & N 95th St","latitude":"47.6981506","longitude":"-122.344513","region":1055},"450":{"stop_name":"Aurora Ave N & N 100th St","latitude":"47.7016754","longitude":"-122.34449","region":1055},"451":{"stop_name":"Aurora Ave N & N Northgate Way","latitude":"47.7054443","longitude":"-122.344543","region":1055},"452":{"stop_name":"Aurora Ave N & N 115th St","latitude":"47.7127342","longitude":"-122.344719","region":1056},"453":{"stop_name":"Aurora Ave N & N 125th St","latitude":"47.7194672","longitude":"-122.344841","region":1057},"454":{"stop_name":"Aurora Ave N & N 130th St","latitude":"47.7237396","longitude":"-122.344879","region":1057},"455":{"stop_name":"Aurora Ave N & N 135th St","latitude":"47.7272987","longitude":"-122.344925","region":1057},"456":{"stop_name":"62nd Ave S & S Prentice St","latitude":"47.5083122","longitude":"-122.256004","region":1572},"457":{"stop_name":"S Prentice St & 64th Ave S","latitude":"47.5081215","longitude":"-122.253754","region":1572},"458":{"stop_name":"64th Ave S & S Ryan St","latitude":"47.5096588","longitude":"-122.253441","region":1572},"459":{"stop_name":"64th Ave S & S Cooper St","latitude":"47.5116005","longitude":"-122.253426","region":1572},"460":{"stop_name":"Waters Ave S & S Norfolk St","latitude":"47.5136909","longitude":"-122.254097","region":1572},"461":{"stop_name":"Waters Ave S & S Pilgrim St","latitude":"47.5156059","longitude":"-122.25666","region":1573},"462":{"stop_name":"Waters Ave S & S Carver St","latitude":"47.5181046","longitude":"-122.259903","region":1506},"463":{"stop_name":"57th Ave S & Waters Ave S","latitude":"47.5195274","longitude":"-122.261482","region":1506},"464":{"stop_name":"Rainier Ave S & Seward Park Ave S","latitude":"47.5200996","longitude":"-122.263481","region":1506},"465":{"stop_name":"Rainier Ave S & 52nd Ave S","latitude":"47.5199165","longitude":"-122.267807","region":1506},"466":{"stop_name":"Rainier Ave S & S Fisher Pl","latitude":"47.521328","longitude":"-122.269897","region":1506},"467":{"stop_name":"Rainier Ave S & S Henderson St","latitude":"47.5228729","longitude":"-122.26989","region":1506},"468":{"stop_name":"Rainier Ave S & Cloverdale Pl S","latitude":"47.5259705","longitude":"-122.26989","region":1507},"469":{"stop_name":"Rainier Ave S & S Rose St","latitude":"47.5293808","longitude":"-122.269897","region":1507},"470":{"stop_name":"Rainier Ave S & S Holden St","latitude":"47.5339088","longitude":"-122.26989","region":1507},"471":{"stop_name":"Rainier Ave S & S Othello St","latitude":"47.5373726","longitude":"-122.270271","region":1441},"472":{"stop_name":"Rainier Ave S & S Frontenac St","latitude":"47.5400429","longitude":"-122.270996","region":1441},"473":{"stop_name":"Rainier Ave S & S Holly St","latitude":"47.5427284","longitude":"-122.272881","region":1441},"474":{"stop_name":"Rainier Ave S & S Graham St","latitude":"47.5459175","longitude":"-122.275703","region":1442},"475":{"stop_name":"Rainier Ave S & S Kenny St","latitude":"47.5492249","longitude":"-122.276947","region":1442},"476":{"stop_name":"Rainier Ave S & S Orcas St","latitude":"47.5514755","longitude":"-122.277718","region":1442},"477":{"stop_name":"Rainier Ave S & S Brandon St","latitude":"47.5535469","longitude":"-122.279793","region":1442},"478":{"stop_name":"Rainier Ave S & 39th Ave S","latitude":"47.5561714","longitude":"-122.283653","region":1376},"479":{"stop_name":"Rainier Ave S & S Edmunds St","latitude":"47.5589104","longitude":"-122.285484","region":1376},"480":{"stop_name":"Rainier Ave S & S Alaska St","latitude":"47.5610237","longitude":"-122.287125","region":1376},"481":{"stop_name":"Rainier Ave S & S Genesee St","latitude":"47.5645103","longitude":"-122.288193","region":1376},"482":{"stop_name":"Rainier Ave S & S Andover St","latitude":"47.5685463","longitude":"-122.289574","region":1377},"483":{"stop_name":"Rainier Ave S & 33rd Ave S","latitude":"47.5701485","longitude":"-122.291336","region":1377},"484":{"stop_name":"Rainier Ave S & S Walden St","latitude":"47.5728989","longitude":"-122.293892","region":1310},"485":{"stop_name":"Rainier Ave S & S Mount Baker Blvd","latitude":"47.5758095","longitude":"-122.296089","region":1310},"486":{"stop_name":"Rainier Ave S & Mount Baker Transit Center - Bay 1","latitude":"47.577507","longitude":"-122.297401","region":1311},"487":{"stop_name":"Mount Baker Transit Center - Bay 2","latitude":"47.5775909","longitude":"-122.297127","region":1311},"488":{"stop_name":"Mount Baker Transit Center - Bay 3","latitude":"47.5776825","longitude":"-122.297165","region":1311},"489":{"stop_name":"Rainier Ave S & S Bayview St","latitude":"47.5811958","longitude":"-122.300201","region":1311},"490":{"stop_name":"Rainier Ave S & S Walker St","latitude":"47.583931","longitude":"-122.302299","region":1244},"491":{"stop_name":"Rainier Ave S & S Plum St","latitude":"47.585743","longitude":"-122.30368","region":1244},"492":{"stop_name":"Rainier Ave S & S Grand St","latitude":"47.5871124","longitude":"-122.30471","region":1245},"493":{"stop_name":"Rainier Ave S & I-90","latitude":"47.5894661","longitude":"-122.306526","region":1245},"494":{"stop_name":"Rainier Ave S & S Charles St","latitude":"47.5944443","longitude":"-122.310318","region":1245},"495":{"stop_name":"Rainier Ave S & S Dearborn St","latitude":"47.5961304","longitude":"-122.311607","region":1245},"496":{"stop_name":"S Jackson St & Boren Ave S","latitude":"47.5992737","longitude":"-122.315155","region":1179},"497":{"stop_name":"S Jackson St & 12th Ave S","latitude":"47.5991287","longitude":"-122.317642","region":1179},"498":{"stop_name":"Rainier Ave S & S King St","latitude":"47.5984726","longitude":"-122.313629","region":1179},"499":{"stop_name":"Rainier Ave S & S Charles St","latitude":"47.5937271","longitude":"-122.309998","region":1245},"500":{"stop_name":"Rainier Ave S & I-90","latitude":"47.5890274","longitude":"-122.306412","region":1245},"501":{"stop_name":"Rainier Ave S & S State St","latitude":"47.5875244","longitude":"-122.305252","region":1245},"502":{"stop_name":"Rainier Ave S & S Walker St","latitude":"47.5837326","longitude":"-122.302368","region":1244},"503":{"stop_name":"Rainier Ave S & S Bayview St","latitude":"47.5807915","longitude":"-122.300133","region":1311},"504":{"stop_name":"Martin L King Jr Way S & S Bayview St","latitude":"47.5815468","longitude":"-122.297058","region":1311},"505":{"stop_name":"Rainier Ave S & S Forest St - Bay 4","latitude":"47.576828","longitude":"-122.297112","region":1311},"506":{"stop_name":"Rainier Ave S & Martin Luther King Junior Way S","latitude":"47.5757294","longitude":"-122.296249","region":1310},"507":{"stop_name":"Rainier Ave S & S Walden St","latitude":"47.5726891","longitude":"-122.293945","region":1310},"508":{"stop_name":"Rainier Ave S & Letitia Ave S","latitude":"47.5699501","longitude":"-122.291237","region":1377},"509":{"stop_name":"Rainier Ave S & S Andover St","latitude":"47.5680389","longitude":"-122.289421","region":1377},"510":{"stop_name":"Rainier Ave S & S Genesee St","latitude":"47.5636826","longitude":"-122.288177","region":1376},"511":{"stop_name":"Rainier Ave S & S Alaska St","latitude":"47.5605469","longitude":"-122.28698","region":1376},"512":{"stop_name":"Rainier Ave S & S Edmunds St","latitude":"47.5586967","longitude":"-122.285583","region":1376},"513":{"stop_name":"Rainier Ave S & S Dawson St","latitude":"47.5553284","longitude":"-122.282974","region":1375},"514":{"stop_name":"Rainier Ave S & S Brandon St","latitude":"47.5534325","longitude":"-122.279884","region":1442},"515":{"stop_name":"Rainier Ave S & S Orcas St","latitude":"47.5509262","longitude":"-122.277634","region":1442},"516":{"stop_name":"Rainier Ave S & S Kenny St","latitude":"47.5486946","longitude":"-122.277061","region":1442},"517":{"stop_name":"Rainier Ave S & S Graham St","latitude":"47.5456696","longitude":"-122.275665","region":1442},"518":{"stop_name":"Rainier Ave S & S Holly St","latitude":"47.5422211","longitude":"-122.272743","region":1441},"519":{"stop_name":"Rainier Ave S & S Frontenac St","latitude":"47.5393143","longitude":"-122.270927","region":1441},"520":{"stop_name":"Rainier Ave S & S Othello St","latitude":"47.5366249","longitude":"-122.270294","region":1441},"521":{"stop_name":"Rainier Ave S & S Holden St","latitude":"47.5333481","longitude":"-122.270088","region":1440},"522":{"stop_name":"Rainier Ave S & S Rose St","latitude":"47.5294037","longitude":"-122.270103","region":1440},"523":{"stop_name":"Rainier Ave S & S Cloverdale St","latitude":"47.5259247","longitude":"-122.270088","region":1440},"524":{"stop_name":"Rainier Ave S & S Henderson St","latitude":"47.5229797","longitude":"-122.270088","region":1439},"525":{"stop_name":"Rainier Ave S & 51st Ave S","latitude":"47.5204582","longitude":"-122.270065","region":1439},"526":{"stop_name":"Rainier Ave S & 54th Ave S","latitude":"47.5198135","longitude":"-122.264709","region":1506},"527":{"stop_name":"Waters Ave S & S Fletcher St","latitude":"47.519062","longitude":"-122.261421","region":1506},"528":{"stop_name":"Waters Ave S & S Carver St","latitude":"47.517746","longitude":"-122.259682","region":1506},"529":{"stop_name":"Waters Ave S & 61st Ave S","latitude":"47.5157661","longitude":"-122.257126","region":1573},"530":{"stop_name":"Waters Ave S & 62nd Ave S","latitude":"47.5147896","longitude":"-122.255966","region":1572},"531":{"stop_name":"62nd Ave S & S Cooper St","latitude":"47.5114174","longitude":"-122.255981","region":1572},"532":{"stop_name":"University Way NE & NE 50th St","latitude":"47.664135","longitude":"-122.313187","region":1185},"533":{"stop_name":"University Way NE & NE 45th St","latitude":"47.662281","longitude":"-122.313217","region":1185},"534":{"stop_name":"U District Station - Bay 4","latitude":"47.6600723","longitude":"-122.313255","region":1185},"535":{"stop_name":"University Way NE & NE 52nd St","latitude":"47.6660233","longitude":"-122.313164","region":1185},"536":{"stop_name":"NE Campus Pkwy & 12th Ave NE - Bay 4","latitude":"47.6562996","longitude":"-122.315338","region":1184},"537":{"stop_name":"University Bridge & NE 40th St","latitude":"47.6557655","longitude":"-122.318504","region":1184},"538":{"stop_name":"Eastlake Ave E & Harvard Ave E","latitude":"47.6503105","longitude":"-122.322372","region":1184},"539":{"stop_name":"University Way NE & NE 41st St","latitude":"47.6569481","longitude":"-122.313339","region":1184},"540":{"stop_name":"NE Campus Pkwy & University Way NE","latitude":"47.6562805","longitude":"-122.313187","region":1184},"541":{"stop_name":"Brooklyn Ave NE & NE Campus Pkwy - Bay 3","latitude":"47.656498","longitude":"-122.314308","region":1184},"542":{"stop_name":"Eastlake Ave E & E Allison St","latitude":"47.648613","longitude":"-122.323685","region":1184},"543":{"stop_name":"Eastlake Ave E & E Hamlin St","latitude":"47.6457291","longitude":"-122.32592","region":1116},"544":{"stop_name":"Eastlake Ave E & E Louisa St","latitude":"47.6418648","longitude":"-122.325989","region":1116},"545":{"stop_name":"Eastlake Ave E & E Lynn St","latitude":"47.6394691","longitude":"-122.326004","region":1116},"546":{"stop_name":"Eastlake Ave E & E Newton St","latitude":"47.6365471","longitude":"-122.32592","region":1115},"547":{"stop_name":"Eastlake Ave E & E Garfield St","latitude":"47.6333923","longitude":"-122.325836","region":1115},"548":{"stop_name":"Eastlake Ave E & E Garfield St","latitude":"47.6341858","longitude":"-122.325363","region":1115},"549":{"stop_name":"Eastlake Ave E & E Howe St","latitude":"47.6361618","longitude":"-122.325577","region":1115},"550":{"stop_name":"Eastlake Ave E & E Lynn St","latitude":"47.6399307","longitude":"-122.325783","region":1116},"551":{"stop_name":"Eastlake Ave E & E Louisa St","latitude":"47.6422806","longitude":"-122.325783","region":1116},"552":{"stop_name":"Eastlake Ave E & E Hamlin St","latitude":"47.6460381","longitude":"-122.325447","region":1116},"553":{"stop_name":"Eastlake Ave E & E Allison St","latitude":"47.6489449","longitude":"-122.323204","region":1184},"554":{"stop_name":"Eastlake Ave E & Harvard Ave E","latitude":"47.6501503","longitude":"-122.322273","region":1184},"555":{"stop_name":"NE Pacific St & University Way NE","latitude":"47.6533928","longitude":"-122.313065","region":1184},"556":{"stop_name":"NE Campus Pkwy & University Way NE - Bay 2","latitude":"47.6559219","longitude":"-122.313492","region":1184},"557":{"stop_name":"NE Campus Pkwy & Brooklyn Ave NE - Bay 1","latitude":"47.6559219","longitude":"-122.31398","region":1184},"558":{"stop_name":"University Way NE & NE 41st St","latitude":"47.6573868","longitude":"-122.313133","region":1185},"559":{"stop_name":"U District Station - Bay 5","latitude":"47.6596832","longitude":"-122.313065","region":1185},"560":{"stop_name":"University Way NE & NE 45th St","latitude":"47.6620674","longitude":"-122.313011","region":1185},"561":{"stop_name":"NE 50th St & University Way NE","latitude":"47.6649742","longitude":"-122.313721","region":1185},"562":{"stop_name":"U District Station - Bay 1","latitude":"47.6598778","longitude":"-122.314117","region":1185},"563":{"stop_name":"Roosevelt Way NE & NE 50th St","latitude":"47.6645966","longitude":"-122.317505","region":1185},"564":{"stop_name":"Roosevelt Way NE & NE 45th St","latitude":"47.6609535","longitude":"-122.317818","region":1185},"565":{"stop_name":"Roosevelt Way NE & NE 42nd St","latitude":"47.6584549","longitude":"-122.317879","region":1185},"566":{"stop_name":"NE 42nd St & 8th Ave NE","latitude":"47.6574516","longitude":"-122.319389","region":1185},"567":{"stop_name":"11th Ave NE & NE 42nd St","latitude":"47.6585732","longitude":"-122.316551","region":1185},"568":{"stop_name":"11th Ave NE & NE 45th St","latitude":"47.6619453","longitude":"-122.316452","region":1185},"569":{"stop_name":"11th Ave NE & NE 47th St","latitude":"47.6633682","longitude":"-122.316254","region":1185},"570":{"stop_name":"NE 125th St & Lake City Way NE","latitude":"47.7192078","longitude":"-122.294708","region":1325},"571":{"stop_name":"NE 125th St & 33rd Ave NE","latitude":"47.7191963","longitude":"-122.292862","region":1325},"572":{"stop_name":"NE 125th St & 35th Ave NE","latitude":"47.7191849","longitude":"-122.291084","region":1392},"573":{"stop_name":"NE 125th St & 39th Ave NE","latitude":"47.7191467","longitude":"-122.2864","region":1392},"574":{"stop_name":"Sand Point Way NE & Bartlett Ave NE","latitude":"47.7168655","longitude":"-122.283722","region":1391},"575":{"stop_name":"Sand Point Way NE & NE 120th St","latitude":"47.7160225","longitude":"-122.283218","region":1391},"576":{"stop_name":"Sand Point Way NE & NE 115th St","latitude":"47.7123718","longitude":"-122.281921","region":1391},"577":{"stop_name":"Sand Point Way NE & NE 110th St","latitude":"47.708622","longitude":"-122.280144","region":1458},"578":{"stop_name":"Sand Point Way NE & NE 106th St","latitude":"47.7050934","longitude":"-122.278427","region":1457},"579":{"stop_name":"Sand Point Way NE & NE 103rd St","latitude":"47.7026825","longitude":"-122.277771","region":1457},"580":{"stop_name":"Sand Point Way NE & NE 97th St","latitude":"47.6996536","longitude":"-122.277824","region":1457},"581":{"stop_name":"Sand Point Way NE & NE 95th St","latitude":"47.6970482","longitude":"-122.277527","region":1456},"582":{"stop_name":"Sand Point Way NE & NE 93rd St","latitude":"47.6958771","longitude":"-122.276596","region":1456},"583":{"stop_name":"Sand Point Way NE & Mathews Ave NE","latitude":"47.6937714","longitude":"-122.274055","region":1456},"584":{"stop_name":"Sand Point Way NE & Inverness Dr NE","latitude":"47.6928368","longitude":"-122.271362","region":1456},"585":{"stop_name":"Sand Point Way NE & NE 77th St","latitude":"47.6844711","longitude":"-122.264397","region":1522},"586":{"stop_name":"Sand Point Way NE & NE 74th St","latitude":"47.6818199","longitude":"-122.263763","region":1522},"587":{"stop_name":"62nd Ave NE & NE 65th St","latitude":"47.6786041","longitude":"-122.262329","region":1522},"588":{"stop_name":"Sand Point Way NE & NE 70th St","latitude":"47.6790886","longitude":"-122.26371","region":1522},"589":{"stop_name":"Sand Point Way NE & NE 65th St","latitude":"47.6758881","longitude":"-122.263634","region":1521},"590":{"stop_name":"Sand Point Way NE & NE 62nd St","latitude":"47.6736374","longitude":"-122.266251","region":1521},"591":{"stop_name":"Sand Point Way NE & NE 58th St","latitude":"47.6705856","longitude":"-122.270515","region":1454},"592":{"stop_name":"Sand Point Way NE & Ivanhoe Pl NE","latitude":"47.6683846","longitude":"-122.274597","region":1454},"593":{"stop_name":"Sand Point Way NE & Princeton Ave NE","latitude":"47.6684837","longitude":"-122.276482","region":1454},"594":{"stop_name":"Sand Point Way NE & NE 52nd St","latitude":"47.6666412","longitude":"-122.281242","region":1386},"595":{"stop_name":"Sand Point Way NE & NE 50th St","latitude":"47.6647072","longitude":"-122.283249","region":1386},"596":{"stop_name":"Sand Point Way NE & 40th Ave NE","latitude":"47.6627426","longitude":"-122.285202","region":1386},"597":{"stop_name":"NE 55th St & Princeton Ave NE","latitude":"47.669342","longitude":"-122.276146","region":1454},"598":{"stop_name":"NE 55th St & 45th Ave NE","latitude":"47.6690254","longitude":"-122.279846","region":1454},"599":{"stop_name":"40th Ave NE & NE 51st St","latitude":"47.6658859","longitude":"-122.284897","region":1386},"600":{"stop_name":"NE 55th St & 39th Ave NE","latitude":"47.6685791","longitude":"-122.285667","region":1387},"601":{"stop_name":"NE 55th St & 37th Ave NE","latitude":"47.6685791","longitude":"-122.2883","region":1387},"602":{"stop_name":"NE 55th St & 35th Ave NE","latitude":"47.6685791","longitude":"-122.290512","region":1387},"603":{"stop_name":"NE 55th St & 33rd Ave NE","latitude":"47.6685829","longitude":"-122.293015","region":1320},"604":{"stop_name":"NE 55th St & 30th Ave NE","latitude":"47.6685905","longitude":"-122.295448","region":1320},"605":{"stop_name":"NE 55th St & 27th Ave NE","latitude":"47.6685944","longitude":"-122.298859","region":1320},"606":{"stop_name":"NE 55th St & 25th Ave NE","latitude":"47.6685944","longitude":"-122.30098","region":1320},"607":{"stop_name":"Ravenna Ave NE & Ravenna Pl NE","latitude":"47.6684799","longitude":"-122.30378","region":1253},"608":{"stop_name":"NE Ravenna Blvd & Park Rd NE","latitude":"47.6695518","longitude":"-122.305405","region":1253},"609":{"stop_name":"20th Ave NE & NE 55th St","latitude":"47.6682739","longitude":"-122.30658","region":1253},"610":{"stop_name":"20th Ave NE & NE 52nd St","latitude":"47.6662827","longitude":"-122.306602","region":1252},"611":{"stop_name":"NE 50th St & 19th Ave NE","latitude":"47.6649284","longitude":"-122.307114","region":1252},"612":{"stop_name":"NE 50th St & 16th Ave NE","latitude":"47.664959","longitude":"-122.311172","region":1252},"613":{"stop_name":"Fairview Ave E & E Nelson Pl","latitude":"47.6300545","longitude":"-122.329338","region":1115},"614":{"stop_name":"Fairview Ave N & Yale Ave N","latitude":"47.6283493","longitude":"-122.33152","region":1115},"615":{"stop_name":"Fairview Ave N & Aloha St","latitude":"47.6270752","longitude":"-122.333122","region":1115},"616":{"stop_name":"Fairview Ave N & Mercer St","latitude":"47.6237869","longitude":"-122.334457","region":1114},"617":{"stop_name":"Fairview Ave N & Thomas St","latitude":"47.6205864","longitude":"-122.334435","region":1114},"618":{"stop_name":"Boren Ave & Virginia St","latitude":"47.6175003","longitude":"-122.333817","region":1114},"619":{"stop_name":"Fairview Ave & Denny Way","latitude":"47.6188736","longitude":"-122.334198","region":1114},"620":{"stop_name":"Fairview Ave N & Harrison St","latitude":"47.6222763","longitude":"-122.334229","region":1114},"621":{"stop_name":"Fairview Ave N & Valley St","latitude":"47.6266136","longitude":"-122.33345","region":1114},"622":{"stop_name":"Valley St & Fairview Ave N","latitude":"47.6260338","longitude":"-122.334106","region":1114},"623":{"stop_name":"Fairview Ave N & Yale Ave N","latitude":"47.6288757","longitude":"-122.330597","region":1115},"624":{"stop_name":"Fairview Ave E & Yale Ave N","latitude":"47.6299744","longitude":"-122.329185","region":1115},"625":{"stop_name":"NE 50th St & University Way NE","latitude":"47.6648293","longitude":"-122.31266","region":1252},"626":{"stop_name":"NE 50th St & 16th Ave NE","latitude":"47.664814","longitude":"-122.310432","region":1252},"627":{"stop_name":"20th Ave NE & NE 50th St","latitude":"47.6650276","longitude":"-122.306404","region":1252},"628":{"stop_name":"20th Ave NE & NE 52nd St","latitude":"47.6666412","longitude":"-122.306404","region":1252},"629":{"stop_name":"20th Ave NE & NE 54th St","latitude":"47.6681633","longitude":"-122.306389","region":1253},"630":{"stop_name":"NE Ravenna Blvd & 21st Ave NE","latitude":"47.669239","longitude":"-122.305595","region":1253},"631":{"stop_name":"Ravenna Ave NE & NE 54th St","latitude":"47.6680031","longitude":"-122.303864","region":1253},"632":{"stop_name":"NE 55th St & 25th Ave NE","latitude":"47.6684494","longitude":"-122.300217","region":1320},"633":{"stop_name":"NE 55th St & 27th Ave NE","latitude":"47.6684494","longitude":"-122.298218","region":1320},"634":{"stop_name":"NE 55th St & 30th Ave NE","latitude":"47.6684494","longitude":"-122.295074","region":1320},"635":{"stop_name":"NE 55th St & 33rd Ave NE","latitude":"47.6684494","longitude":"-122.29232","region":1320},"636":{"stop_name":"NE 55th St & 35th Ave NE","latitude":"47.6684456","longitude":"-122.29039","region":1387},"637":{"stop_name":"NE 55th St & 36th Ave NE","latitude":"47.6684456","longitude":"-122.288803","region":1387},"638":{"stop_name":"40th Ave NE & NE 46th St","latitude":"47.6619339","longitude":"-122.284668","region":1386},"639":{"stop_name":"40th Ave NE & NE 50th St","latitude":"47.6650925","longitude":"-122.284698","region":1386},"640":{"stop_name":"NE 55th St & 40th Ave NE","latitude":"47.6684418","longitude":"-122.285049","region":1387},"641":{"stop_name":"NE 55th St & 45th Ave NE","latitude":"47.6690025","longitude":"-122.279121","region":1454},"642":{"stop_name":"NE 55th St & Princeton Ave NE","latitude":"47.6691818","longitude":"-122.275909","region":1454},"643":{"stop_name":"Sand Point Way NE & 38th Ave NE","latitude":"47.6615753","longitude":"-122.286484","region":1386},"644":{"stop_name":"Sand Point Way NE & 40th Ave NE","latitude":"47.6634483","longitude":"-122.284119","region":1386},"645":{"stop_name":"Sand Point Way NE & NE 50th St","latitude":"47.6646538","longitude":"-122.282867","region":1386},"646":{"stop_name":"Sand Point Way NE & NE 52nd St","latitude":"47.6670799","longitude":"-122.28035","region":1453},"647":{"stop_name":"Sand Point Way NE & Princeton Ave NE","latitude":"47.6681938","longitude":"-122.275978","region":1454},"648":{"stop_name":"Sand Point Way NE & NE Windermere Rd","latitude":"47.6702614","longitude":"-122.270485","region":1454},"649":{"stop_name":"Sand Point Way NE & NE 61st St","latitude":"47.6729889","longitude":"-122.266663","region":1521},"650":{"stop_name":"Sand Point Way NE & NE 65th St","latitude":"47.6759758","longitude":"-122.263428","region":1521},"651":{"stop_name":"Sand Point Way NE & NE 70th St","latitude":"47.6797371","longitude":"-122.263519","region":1522},"652":{"stop_name":"Sand Point Way NE & NE 74th St","latitude":"47.6817589","longitude":"-122.263565","region":1522},"653":{"stop_name":"Sand Point Way NE & NE 77th St","latitude":"47.6850052","longitude":"-122.264465","region":1522},"654":{"stop_name":"NOAA & Building 1","latitude":"47.6865425","longitude":"-122.257362","region":1589},"655":{"stop_name":"NE NOAA Dr","latitude":"47.6861496","longitude":"-122.260803","region":1522},"656":{"stop_name":"NE NOAA Dr & Guard Shack","latitude":"47.6862411","longitude":"-122.259926","region":1522},"657":{"stop_name":"NOAA & Building 3","latitude":"47.6860123","longitude":"-122.255531","region":1589},"658":{"stop_name":"Sand Point Way NE & Inverness Dr NE","latitude":"47.6928253","longitude":"-122.270943","region":1456},"659":{"stop_name":"Sand Point Way NE & Matthews Pl NE","latitude":"47.6945229","longitude":"-122.275177","region":1456},"660":{"stop_name":"Sand Point Way NE & NE 93rd St","latitude":"47.6961441","longitude":"-122.276566","region":1456},"661":{"stop_name":"Sand Point Way NE & NE 95th St","latitude":"47.6972351","longitude":"-122.277443","region":1456},"662":{"stop_name":"Sand Point Way NE & NE 97th St","latitude":"47.6990929","longitude":"-122.277634","region":1457},"663":{"stop_name":"Sand Point Way NE & NE 103rd St","latitude":"47.7030869","longitude":"-122.277565","region":1457},"664":{"stop_name":"Sand Point Way NE & NE 106th St","latitude":"47.7053642","longitude":"-122.278374","region":1457},"665":{"stop_name":"Sand Point Way NE & NE 110th St","latitude":"47.7092285","longitude":"-122.280212","region":1458},"666":{"stop_name":"Sand Point Way NE & NE 115th St","latitude":"47.7126198","longitude":"-122.281837","region":1391},"667":{"stop_name":"Sand Point Way NE & NE 120th St","latitude":"47.7160149","longitude":"-122.283005","region":1391},"668":{"stop_name":"Sand Point Way NE & NE 123rd St","latitude":"47.717598","longitude":"-122.283928","region":1391},"669":{"stop_name":"Sand Point Way NE & NE 125th St","latitude":"47.7192917","longitude":"-122.28669","region":1392},"670":{"stop_name":"NE 125th St & 35th Ave NE","latitude":"47.7193222","longitude":"-122.291412","region":1392},"671":{"stop_name":"NE 125th St & 33rd Ave NE","latitude":"47.7193375","longitude":"-122.293205","region":1325},"672":{"stop_name":"12th Ave NE & NE 47th St","latitude":"47.662281","longitude":"-122.315475","region":1185},"673":{"stop_name":"U District Station - Bay 3","latitude":"47.6612053","longitude":"-122.313477","region":1185},"674":{"stop_name":"15th Ave NE & NE 43rd St","latitude":"47.6593704","longitude":"-122.312096","region":1252},"675":{"stop_name":"15th Ave NE & NE Campus Pkwy","latitude":"47.6564217","longitude":"-122.312164","region":1251},"676":{"stop_name":"Harvard Ave E & Eastlake Ave E","latitude":"47.6500931","longitude":"-122.321999","region":1184},"677":{"stop_name":"Harvard Ave E & Eastlake Ave E","latitude":"47.649704","longitude":"-122.322205","region":1184},"678":{"stop_name":"15th Ave NE & NE 40th St","latitude":"47.6548195","longitude":"-122.31221","region":1251},"679":{"stop_name":"Harvard Ave E & E Shelby St","latitude":"47.647007","longitude":"-122.322205","region":1183},"680":{"stop_name":"10th Ave E & E Roanoke St","latitude":"47.6429367","longitude":"-122.32016","region":1183},"681":{"stop_name":"10th Ave E & E Miller St","latitude":"47.6411629","longitude":"-122.32016","region":1183},"682":{"stop_name":"10th Ave E & E Newton St","latitude":"47.6370277","longitude":"-122.320183","region":1183},"683":{"stop_name":"10th Ave E & E Galer St","latitude":"47.6321259","longitude":"-122.320305","region":1182},"684":{"stop_name":"10th Ave E & E Prospect St","latitude":"47.6287384","longitude":"-122.32032","region":1182},"685":{"stop_name":"Broadway  E & E Roy St","latitude":"47.625515","longitude":"-122.32122","region":1181},"686":{"stop_name":"E Aloha St & Broadway  E","latitude":"47.6267662","longitude":"-122.320961","region":1181},"687":{"stop_name":"Boren Ave & Jefferson St","latitude":"47.6060677","longitude":"-122.322029","region":1179},"688":{"stop_name":"E Roy St & Broadway  E","latitude":"47.6251907","longitude":"-122.320816","region":1181},"689":{"stop_name":"Boren Ave & Marion St","latitude":"47.608429","longitude":"-122.324188","region":1113},"690":{"stop_name":"Boren Ave & Madison St","latitude":"47.6096344","longitude":"-122.325294","region":1113},"691":{"stop_name":"Broadway  E & E Republican St","latitude":"47.6228943","longitude":"-122.321014","region":1181},"692":{"stop_name":"Broadway  E & E Thomas St","latitude":"47.6208153","longitude":"-122.320992","region":1181},"693":{"stop_name":"Broadway & E Denny Way","latitude":"47.6185379","longitude":"-122.320946","region":1181},"694":{"stop_name":"Broadway & E Pine St","latitude":"47.6161919","longitude":"-122.320923","region":1180},"695":{"stop_name":"Boren Ave & Seneca St","latitude":"47.6103745","longitude":"-122.32621","region":1113},"696":{"stop_name":"E Pine St & Broadway","latitude":"47.615303","longitude":"-122.321495","region":1180},"697":{"stop_name":"Boren Ave & Madison St","latitude":"47.6089554","longitude":"-122.324913","region":1113},"698":{"stop_name":"Boren Ave & Columbia St","latitude":"47.6075935","longitude":"-122.323669","region":1180},"699":{"stop_name":"E Pine St & Belmont Ave","latitude":"47.6152878","longitude":"-122.325127","region":1113},"700":{"stop_name":"E Pine St & Bellevue Ave","latitude":"47.6152992","longitude":"-122.327271","region":1113},"701":{"stop_name":"Pike St & Convention Pl","latitude":"47.6123695","longitude":"-122.33136","region":1113},"702":{"stop_name":"Pike St & Boren Ave","latitude":"47.6135788","longitude":"-122.328445","region":1113},"703":{"stop_name":"E Pine St & Summit Ave","latitude":"47.6151581","longitude":"-122.324638","region":1113},"704":{"stop_name":"E Pine St & Harvard Ave","latitude":"47.6151619","longitude":"-122.321617","region":1180},"705":{"stop_name":"Broadway & E Howell St","latitude":"47.6181564","longitude":"-122.320747","region":1181},"706":{"stop_name":"Broadway  E & E John St","latitude":"47.6201553","longitude":"-122.320786","region":1181},"707":{"stop_name":"Broadway  E & E Harrison St","latitude":"47.6221962","longitude":"-122.320816","region":1181},"708":{"stop_name":"10th Ave E & E Mercer St","latitude":"47.623951","longitude":"-122.319992","region":1181},"709":{"stop_name":"Broadway  E & E Mercer St","latitude":"47.6246109","longitude":"-122.320839","region":1181},"710":{"stop_name":"10th Ave E & E Prospect St","latitude":"47.6288605","longitude":"-122.320114","region":1182},"711":{"stop_name":"10th Ave E & E Galer St","latitude":"47.6322136","longitude":"-122.320099","region":1182},"712":{"stop_name":"10th Ave E & E Howe St","latitude":"47.6361618","longitude":"-122.319992","region":1182},"713":{"stop_name":"10th Ave E & E Miller St","latitude":"47.641571","longitude":"-122.319969","region":1183},"714":{"stop_name":"E Roanoke St & 10th Ave E","latitude":"47.6431274","longitude":"-122.319298","region":1183},"715":{"stop_name":"E Roanoke St & Broadway  E","latitude":"47.643261","longitude":"-122.320747","region":1183},"716":{"stop_name":"Harvard Ave E & E Shelby St","latitude":"47.647171","longitude":"-122.321999","region":1184},"717":{"stop_name":"15th Ave NE & NE 42nd St","latitude":"47.6586685","longitude":"-122.311905","region":1252},"718":{"stop_name":"NE 45th St & 17th Ave NE","latitude":"47.6613274","longitude":"-122.31012","region":1252},"719":{"stop_name":"NE 45th St & 20th Ave NE","latitude":"47.6613274","longitude":"-122.306923","region":1252},"720":{"stop_name":"U District Station - Bay 2","latitude":"47.6613388","longitude":"-122.313614","region":1185},"721":{"stop_name":"15th Ave E & E Galer St","latitude":"47.6324997","longitude":"-122.312607","region":1249},"722":{"stop_name":"15th Ave E & E Prospect St","latitude":"47.628479","longitude":"-122.312668","region":1249},"723":{"stop_name":"15th Ave E & E Aloha St","latitude":"47.6266823","longitude":"-122.312668","region":1248},"724":{"stop_name":"15th Ave E & E Roy St","latitude":"47.6250267","longitude":"-122.312698","region":1248},"725":{"stop_name":"15th Ave E & E Republican St","latitude":"47.6228943","longitude":"-122.312737","region":1248},"726":{"stop_name":"E Pine St & 15th Ave","latitude":"47.6153564","longitude":"-122.313255","region":1180},"727":{"stop_name":"E Pine St & 13th Ave","latitude":"47.615345","longitude":"-122.31591","region":1180},"728":{"stop_name":"E Pine St & 12th Ave","latitude":"47.6152","longitude":"-122.316483","region":1180},"729":{"stop_name":"E Pine St & 15th Ave","latitude":"47.6152115","longitude":"-122.311852","region":1247},"730":{"stop_name":"15th Ave E & E Harrison St","latitude":"47.6226654","longitude":"-122.312538","region":1248},"731":{"stop_name":"15th Ave E & E Roy St","latitude":"47.6254234","longitude":"-122.312492","region":1248},"732":{"stop_name":"15th Ave E & E Aloha St","latitude":"47.6270981","longitude":"-122.312469","region":1249},"733":{"stop_name":"15th Ave E & E Prospect St","latitude":"47.6289024","longitude":"-122.312454","region":1249},"734":{"stop_name":"15th Ave E & E Highland Dr","latitude":"47.6308327","longitude":"-122.312424","region":1249},"735":{"stop_name":"Grandview Pl E & E Galer St","latitude":"47.6325226","longitude":"-122.311821","region":1249},"736":{"stop_name":"Grandview Pl E & E Garfield St","latitude":"47.634079","longitude":"-122.311798","region":1249},"737":{"stop_name":"Mount Rainier Dr S & S Hanford St","latitude":"47.5756569","longitude":"-122.284843","region":1377},"738":{"stop_name":"Mount Rainier Dr S & S Ridgeway Pl","latitude":"47.5765381","longitude":"-122.28624","region":1378},"739":{"stop_name":"S Mcclellan St & Lake Park Dr S","latitude":"47.5784073","longitude":"-122.288605","region":1378},"740":{"stop_name":"S Mcclellan St & 31st Ave S","latitude":"47.5784111","longitude":"-122.292671","region":1311},"741":{"stop_name":"31st Ave S & S Lander St","latitude":"47.5798607","longitude":"-122.292908","region":1311},"742":{"stop_name":"31st Ave S & S College St","latitude":"47.5827065","longitude":"-122.292892","region":1311},"743":{"stop_name":"31st Ave S & S Plum St","latitude":"47.5850983","longitude":"-122.292908","region":1311},"744":{"stop_name":"31st Ave S & S Massachusetts St","latitude":"47.5881615","longitude":"-122.292442","region":1312},"745":{"stop_name":"31st Ave S & S Day St","latitude":"47.5905342","longitude":"-122.292305","region":1312},"746":{"stop_name":"31st Ave S & S Norman St","latitude":"47.5935059","longitude":"-122.292656","region":1312},"747":{"stop_name":"31st Ave S & S Dearborn St","latitude":"47.5959206","longitude":"-122.292603","region":1312},"748":{"stop_name":"31st Ave S & S King St","latitude":"47.597908","longitude":"-122.292519","region":1313},"749":{"stop_name":"S Jackson St & 30th Ave S","latitude":"47.5992508","longitude":"-122.29364","region":1313},"750":{"stop_name":"S Jackson St & 28th Ave S","latitude":"47.5992851","longitude":"-122.296112","region":1313},"751":{"stop_name":"S Jackson St & Martin L King Jr Way S","latitude":"47.5993042","longitude":"-122.297752","region":1313},"752":{"stop_name":"S Jackson St & 23rd Ave S","latitude":"47.5993462","longitude":"-122.302032","region":1313},"753":{"stop_name":"S Jackson St & 20th Pl S","latitude":"47.5993347","longitude":"-122.304642","region":1246},"754":{"stop_name":"S Jackson St & 18th Ave S","latitude":"47.5993042","longitude":"-122.309349","region":1246},"755":{"stop_name":"S Jackson St & Rainier Ave S","latitude":"47.5991402","longitude":"-122.313576","region":1179},"756":{"stop_name":"S Jackson St & 18th Ave S","latitude":"47.5991669","longitude":"-122.309738","region":1246},"757":{"stop_name":"S Jackson St & 20th Ave S","latitude":"47.5991898","longitude":"-122.305992","region":1246},"758":{"stop_name":"S Jackson St & 23rd Ave S","latitude":"47.5992203","longitude":"-122.30143","region":1313},"759":{"stop_name":"S Jackson St & 28th Ave S","latitude":"47.5991478","longitude":"-122.295952","region":1313},"760":{"stop_name":"S Jackson St & 30th Ave S","latitude":"47.5991173","longitude":"-122.29393","region":1313},"761":{"stop_name":"31st Ave S & S King St","latitude":"47.597744","longitude":"-122.29274","region":1313},"762":{"stop_name":"31st Ave S & S Dearborn St","latitude":"47.5955124","longitude":"-122.292809","region":1312},"763":{"stop_name":"31st Ave S & S Norman St","latitude":"47.5930748","longitude":"-122.292877","region":1312},"764":{"stop_name":"31st Ave S & S Irving St","latitude":"47.5909729","longitude":"-122.292496","region":1312},"765":{"stop_name":"31st Ave S & S Massachusetts St","latitude":"47.5878716","longitude":"-122.292648","region":1312},"766":{"stop_name":"31st Ave S & S Plum St","latitude":"47.5849571","longitude":"-122.293098","region":1311},"767":{"stop_name":"31st Ave S & S Walker St","latitude":"47.5834236","longitude":"-122.293106","region":1311},"768":{"stop_name":"31st Ave S & S Lander St","latitude":"47.579422","longitude":"-122.293098","region":1311},"769":{"stop_name":"S Mcclellan St & 31st Ave S","latitude":"47.5782738","longitude":"-122.292587","region":1311},"770":{"stop_name":"S Mcclellan St & S Mount Baker Blvd","latitude":"47.5782738","longitude":"-122.288712","region":1378},"771":{"stop_name":"Mount Rainier Dr S & 37th Pl S","latitude":"47.5767555","longitude":"-122.286827","region":1378},"772":{"stop_name":"E Mcgilvra St & 42nd Ave E","latitude":"47.6407738","longitude":"-122.278122","region":1451},"773":{"stop_name":"42nd Ave E & E Lynn St","latitude":"47.6388626","longitude":"-122.278534","region":1451},"774":{"stop_name":"42nd Ave E & E Newton St","latitude":"47.6367264","longitude":"-122.278564","region":1450},"775":{"stop_name":"42nd Ave E & E Madison St","latitude":"47.6356049","longitude":"-122.278572","region":1450},"776":{"stop_name":"E Madison St & 41st Ave E","latitude":"47.6347008","longitude":"-122.279778","region":1450},"777":{"stop_name":"E Madison St & E Garfield St","latitude":"47.6335716","longitude":"-122.281433","region":1383},"778":{"stop_name":"E Madison St & 38th Ave E","latitude":"47.6319466","longitude":"-122.283836","region":1383},"779":{"stop_name":"E Madison St & 36th Ave E","latitude":"47.6302643","longitude":"-122.286324","region":1383},"780":{"stop_name":"E Madison St & 34th Ave E","latitude":"47.6289024","longitude":"-122.288345","region":1383},"781":{"stop_name":"E Madison St & Lake Washington Blvd","latitude":"47.6259193","longitude":"-122.292725","region":1315},"782":{"stop_name":"E Madison St & 28th Ave E","latitude":"47.6231651","longitude":"-122.296799","region":1315},"783":{"stop_name":"E Madison St & 25th Ave E","latitude":"47.6208687","longitude":"-122.300186","region":1315},"784":{"stop_name":"E Madison St & 23rd Ave E","latitude":"47.6192856","longitude":"-122.302536","region":1248},"785":{"stop_name":"E Madison St & 22nd Ave E","latitude":"47.617939","longitude":"-122.304718","region":1248},"786":{"stop_name":"E Madison St & 20th Ave","latitude":"47.6173515","longitude":"-122.306114","region":1248},"787":{"stop_name":"E Madison St & 19th Ave","latitude":"47.6166191","longitude":"-122.307877","region":1248},"788":{"stop_name":"E Madison St & 17th Ave","latitude":"47.6155205","longitude":"-122.310516","region":1247},"789":{"stop_name":"E Madison St & 15th Ave","latitude":"47.6143608","longitude":"-122.313301","region":1180},"790":{"stop_name":"E Madison St & 15th Ave","latitude":"47.6145515","longitude":"-122.312454","region":1247},"791":{"stop_name":"E Madison St & 17th Ave","latitude":"47.6154594","longitude":"-122.310265","region":1247},"792":{"stop_name":"E Madison St & 18th Ave","latitude":"47.6161728","longitude":"-122.308563","region":1247},"793":{"stop_name":"E Madison St & 20th Ave","latitude":"47.617363","longitude":"-122.305702","region":1248},"794":{"stop_name":"E Madison St & 22nd Ave","latitude":"47.6182289","longitude":"-122.303802","region":1248},"795":{"stop_name":"E Madison St & 23rd Ave E","latitude":"47.6192589","longitude":"-122.302277","region":1248},"796":{"stop_name":"E Madison St & 25th Ave E","latitude":"47.6210938","longitude":"-122.299561","region":1315},"797":{"stop_name":"E Madison St & 27th Ave E","latitude":"47.6224899","longitude":"-122.297508","region":1315},"798":{"stop_name":"E Madison St & 29th Ave E","latitude":"47.6240654","longitude":"-122.295189","region":1315},"799":{"stop_name":"E Madison St & Lake Washington Blvd","latitude":"47.626152","longitude":"-122.292099","region":1315},"800":{"stop_name":"E Madison St & 33rd Ave E","latitude":"47.6281853","longitude":"-122.289093","region":1383},"801":{"stop_name":"E Madison St & 36th Ave E","latitude":"47.62994","longitude":"-122.286514","region":1383},"802":{"stop_name":"E Madison St & 38th Ave E","latitude":"47.631443","longitude":"-122.284302","region":1383},"803":{"stop_name":"E Madison St & 39th Ave E","latitude":"47.6324272","longitude":"-122.282822","region":1383},"804":{"stop_name":"E Madison St & 41st Ave E","latitude":"47.6343307","longitude":"-122.280022","region":1450},"805":{"stop_name":"43rd Ave E & E Blaine St","latitude":"47.6348839","longitude":"-122.277046","region":1450},"806":{"stop_name":"43rd Ave E & E Madison St","latitude":"47.636631","longitude":"-122.277016","region":1450},"807":{"stop_name":"43rd Ave E & E Lynn St","latitude":"47.6390877","longitude":"-122.276993","region":1451},"808":{"stop_name":"Martin L King Jr Way S & S Judkins St","latitude":"47.59161","longitude":"-122.297646","region":1312},"809":{"stop_name":"Martin L King Jr Way S & S Hill St","latitude":"47.584259","longitude":"-122.298248","region":1311},"810":{"stop_name":"S Walker St & 25th Ave S","latitude":"47.5837135","longitude":"-122.299629","region":1311},"811":{"stop_name":"Martin L King Jr Way S & S Bayview St","latitude":"47.5810013","longitude":"-122.296921","region":1311},"812":{"stop_name":"Martin L King Jr Way S & S Massachusetts St","latitude":"47.5879974","longitude":"-122.298195","region":1312},"813":{"stop_name":"S Plum St & 25th Ave S","latitude":"47.5854111","longitude":"-122.300079","region":1311},"814":{"stop_name":"Martin L King Jr Way S & S Massachusetts St","latitude":"47.5886765","longitude":"-122.297852","region":1312},"815":{"stop_name":"26th Ave S & S Norman St","latitude":"47.5931625","longitude":"-122.298958","region":1312},"816":{"stop_name":"S Dearborn St & 26th Ave S","latitude":"47.5956268","longitude":"-122.299423","region":1312},"817":{"stop_name":"23rd Ave S & S Lane St","latitude":"47.5967102","longitude":"-122.302124","region":1313},"818":{"stop_name":"23rd Ave S & S Jackson St","latitude":"47.5996971","longitude":"-122.302124","region":1313},"819":{"stop_name":"23rd Ave & E Yesler Way","latitude":"47.6018944","longitude":"-122.302299","region":1246},"820":{"stop_name":"23rd Ave & E Jefferson St","latitude":"47.6058998","longitude":"-122.302887","region":1246},"821":{"stop_name":"23rd Ave S & E Yesler Way","latitude":"47.6012573","longitude":"-122.302361","region":1246},"822":{"stop_name":"23rd Ave S & S Jackson St","latitude":"47.5989761","longitude":"-122.302315","region":1246},"823":{"stop_name":"S Dearborn St & 24th Ave S","latitude":"47.5955009","longitude":"-122.301636","region":1312},"824":{"stop_name":"24th Ave S & S Norman St","latitude":"47.5927429","longitude":"-122.301292","region":1312},"825":{"stop_name":"34th Ave & E Union St","latitude":"47.6125031","longitude":"-122.289421","region":1381},"826":{"stop_name":"34th Ave & E Marion St","latitude":"47.6105156","longitude":"-122.289474","region":1381},"827":{"stop_name":"34th Ave & E Cherry St","latitude":"47.6080475","longitude":"-122.289528","region":1381},"828":{"stop_name":"E Cherry St & 32nd Ave","latitude":"47.6080322","longitude":"-122.292","region":1314},"829":{"stop_name":"E Cherry St & Martin L King Jr Way","latitude":"47.6080627","longitude":"-122.296158","region":1314},"830":{"stop_name":"E Cherry St & 24th Ave","latitude":"47.6080704","longitude":"-122.300499","region":1314},"831":{"stop_name":"23rd Ave & E Cherry St","latitude":"47.6077118","longitude":"-122.302879","region":1247},"832":{"stop_name":"E Jefferson St & 23rd Ave","latitude":"47.6062393","longitude":"-122.303215","region":1246},"833":{"stop_name":"E Jefferson St & 21st Ave","latitude":"47.6062355","longitude":"-122.305351","region":1246},"834":{"stop_name":"E Jefferson St & 18th Ave","latitude":"47.6062508","longitude":"-122.309669","region":1246},"835":{"stop_name":"E Jefferson St & 15th Ave","latitude":"47.606266","longitude":"-122.313126","region":1179},"836":{"stop_name":"E Jefferson St & 12th Ave","latitude":"47.606266","longitude":"-122.317108","region":1179},"837":{"stop_name":"12th Ave & E Alder St","latitude":"47.6045799","longitude":"-122.316879","region":1179},"838":{"stop_name":"12th Ave & E Terrace St","latitude":"47.6050415","longitude":"-122.316689","region":1179},"839":{"stop_name":"Jefferson St & Broadway","latitude":"47.6061554","longitude":"-122.321167","region":1179},"840":{"stop_name":"Jefferson St & 9th Ave","latitude":"47.6049347","longitude":"-122.324089","region":1112},"841":{"stop_name":"James St & 8th Ave","latitude":"47.6051865","longitude":"-122.325813","region":1112},"842":{"stop_name":"James St & 8th Ave","latitude":"47.6051636","longitude":"-122.3255","region":1112},"843":{"stop_name":"9th Ave & Jefferson St","latitude":"47.6048737","longitude":"-122.324242","region":1112},"844":{"stop_name":"E Jefferson St & Broadway","latitude":"47.606144","longitude":"-122.320229","region":1179},"845":{"stop_name":"E Jefferson St & 12th Ave","latitude":"47.6061249","longitude":"-122.316376","region":1179},"846":{"stop_name":"E Jefferson St & 14th Ave","latitude":"47.6061249","longitude":"-122.31356","region":1179},"847":{"stop_name":"E Jefferson St & 17th Ave","latitude":"47.6061096","longitude":"-122.309929","region":1246},"848":{"stop_name":"E Jefferson St & 20th Ave","latitude":"47.6060982","longitude":"-122.305962","region":1246},"849":{"stop_name":"21st Ave & E James St","latitude":"47.607399","longitude":"-122.304924","region":1247},"850":{"stop_name":"E Cherry St & 23rd Ave","latitude":"47.6079369","longitude":"-122.30233","region":1247},"851":{"stop_name":"E Cherry St & 25th Ave","latitude":"47.6079369","longitude":"-122.299774","region":1314},"852":{"stop_name":"E Cherry St & Martin L King Jr Way","latitude":"47.6079292","longitude":"-122.296364","region":1314},"853":{"stop_name":"E Cherry St & 31st Ave","latitude":"47.6079063","longitude":"-122.292305","region":1314},"854":{"stop_name":"E Cherry St & 33rd Ave","latitude":"47.6078835","longitude":"-122.290253","region":1381},"855":{"stop_name":"34th Ave & E Columbia St","latitude":"47.6094742","longitude":"-122.289299","region":1381},"856":{"stop_name":"E Spring St & 34th Ave","latitude":"47.6117134","longitude":"-122.29023","region":1381},"857":{"stop_name":"Interlaken Turnback Loop & 19th Ave E","latitude":"47.6325073","longitude":"-122.307373","region":1249},"858":{"stop_name":"19th Ave E & E Galer St","latitude":"47.631897","longitude":"-122.307327","region":1249},"859":{"stop_name":"19th Ave E & E Highland Dr","latitude":"47.6304359","longitude":"-122.307358","region":1249},"860":{"stop_name":"19th Ave E & E Prospect St","latitude":"47.6284943","longitude":"-122.307373","region":1249},"861":{"stop_name":"19th Ave E & E Aloha St","latitude":"47.6266518","longitude":"-122.307411","region":1248},"862":{"stop_name":"19th Ave E & E Mercer St","latitude":"47.6241951","longitude":"-122.307396","region":1248},"863":{"stop_name":"19th Ave E & E Harrison St","latitude":"47.6219025","longitude":"-122.307426","region":1248},"864":{"stop_name":"19th Ave E & E John St","latitude":"47.6194572","longitude":"-122.307465","region":1248},"865":{"stop_name":"19th Ave & E Denny Way","latitude":"47.6182632","longitude":"-122.307495","region":1248},"866":{"stop_name":"E Madison St & 13th Ave","latitude":"47.6131248","longitude":"-122.316277","region":1180},"867":{"stop_name":"E Madison St & Broadway Ct","latitude":"47.6116257","longitude":"-122.319855","region":1180},"868":{"stop_name":"Madison St & Summit Ave","latitude":"47.610424","longitude":"-122.322723","region":1180},"869":{"stop_name":"Madison St & Boren Ave","latitude":"47.609211","longitude":"-122.325638","region":1113},"870":{"stop_name":"Madison St & 9th Ave","latitude":"47.6083336","longitude":"-122.327736","region":1113},"871":{"stop_name":"Madison St & Boren Ave","latitude":"47.6094246","longitude":"-122.324745","region":1113},"872":{"stop_name":"Madison St & Summit Ave","latitude":"47.6103477","longitude":"-122.322533","region":1180},"873":{"stop_name":"E Madison St & Broadway","latitude":"47.6112671","longitude":"-122.320335","region":1180},"874":{"stop_name":"E Madison St & 14th Ave","latitude":"47.6137772","longitude":"-122.314308","region":1180},"875":{"stop_name":"19th Ave E & E Denny Way","latitude":"47.6186981","longitude":"-122.307274","region":1248},"876":{"stop_name":"19th Ave E & E John St","latitude":"47.619873","longitude":"-122.307259","region":1248},"877":{"stop_name":"19th Ave E & E Thomas St","latitude":"47.6206818","longitude":"-122.307251","region":1248},"878":{"stop_name":"19th Ave E & E Harrison St","latitude":"47.6218605","longitude":"-122.307236","region":1248},"879":{"stop_name":"19th Ave E & E Republican St","latitude":"47.6234016","longitude":"-122.307205","region":1248},"880":{"stop_name":"19th Ave E & E Roy St","latitude":"47.6254692","longitude":"-122.30722","region":1248},"881":{"stop_name":"19th Ave E & E Aloha St","latitude":"47.6270447","longitude":"-122.30719","region":1249},"882":{"stop_name":"19th Ave E & E Prospect St","latitude":"47.6288605","longitude":"-122.307167","region":1249},"883":{"stop_name":"19th Ave E & E Highland Dr","latitude":"47.630806","longitude":"-122.307152","region":1249},"884":{"stop_name":"Bellevue Ave & E Olive Way","latitude":"47.6167336","longitude":"-122.326889","region":1114},"885":{"stop_name":"Bellevue Ave & E Olive St","latitude":"47.6165085","longitude":"-122.326691","region":1113},"886":{"stop_name":"NW 105th St & 14th Ave NW","latitude":"47.7051239","longitude":"-122.373596","region":854},"887":{"stop_name":"NW 103rd St & 13th Ave NW","latitude":"47.7034264","longitude":"-122.373131","region":854},"888":{"stop_name":"14th Ave NW & NW 100th St","latitude":"47.7016335","longitude":"-122.374199","region":854},"889":{"stop_name":"15th Ave NW & NW 100th St","latitude":"47.7012444","longitude":"-122.376877","region":854},"890":{"stop_name":"15th Ave NW & NW 96th St","latitude":"47.6987267","longitude":"-122.3769","region":854},"891":{"stop_name":"15th Ave NW & NW 92nd St","latitude":"47.6956444","longitude":"-122.3769","region":853},"892":{"stop_name":"15th Ave NW & NW 87th St","latitude":"47.6930084","longitude":"-122.37674","region":853},"893":{"stop_name":"15th Ave NW & NW 85th St","latitude":"47.6901588","longitude":"-122.376915","region":853},"894":{"stop_name":"15th Ave NW & NW 80th St","latitude":"47.6862793","longitude":"-122.3769","region":852},"895":{"stop_name":"15th Ave NW & NW 75th St","latitude":"47.682991","longitude":"-122.376892","region":852},